[{"id":"ea392ac1f041d0a44b230c13c6de1f29","date":"2017-06-02 17:41:42","timestamp":"2018-04-08 01:30:54","title":"Cachoeiras de Macacu tem primeiro caso de febre amarela ","url":"https:\/\/g1.globo.com\/rj\/regiao-serrana\/noticia\/cachoeiras-de-macacu-tem-primeiro-caso-de-febre-amarela-confirmado-sao-18-no-estado.ghtml","lat":"-22.46","lng":"-42.65","local":"Cachoeiras de Macacu (RJ)","causality":[],"topics":[],"sensors":[]},{"id":"23520f6a9dc3293d6a06a68076285a9f","date":"2017-07-13 08:58:15","timestamp":"2018-03-17 16:10:46","title":"Saquarema, RJ, ter\u00e1 Dia D de vacina\u00e7\u00e3o contra febre amarela","url":"https:\/\/g1.globo.com\/rj\/regiao-dos-lagos\/noticia\/saquarema-rj-tera-dia-d-de-vacinacao-contra-febre-amarela.ghtml","lat":"-22.92","lng":"-42.51","local":"Saquarema (RJ)","causality":[],"topics":[],"sensors":[]},{"id":"8020c0666fd41a5711335db7602c5a81","date":"2017-10-17 22:45:21","timestamp":"2018-04-12 20:45:16","title":"Itatiba confirma primeira morte de morador por febre amarela","url":"https:\/\/g1.globo.com\/sao-paulo\/sorocaba-jundiai\/noticia\/itatiba-confirma-primeira-morte-de-morador-por-febre-amarela.ghtml","lat":"-23","lng":"-46.83","local":"Itatiba (SP)","causality":[],"topics":[],"sensors":[]},{"id":"da54dbc8a00fe474fd3df2010e56b85e","date":"2017-10-25 07:34:36","timestamp":"2018-06-14 20:56:54","title":"Com suspeita de febre amarela em macacos, Mairipor\u00e3 inicia ","url":"https:\/\/g1.globo.com\/sao-paulo\/noticia\/com-suspeita-de-febre-amarela-em-macacos-mairipora-inicia-campanha-de-vacinacao-contra-doenca.ghtml","lat":"-23.31","lng":"-46.58","local":"Mairipora (SP)","causality":[],"topics":[],"sensors":[]},{"id":"e661f36644ba3a294e5b651dab4e44ce","date":"2017-11-07 12:30:48","timestamp":"2018-03-12 05:32:07","title":"Segundo caso de febre amarela em humano \u00e9 confirmado em Itatiba","url":"https:\/\/g1.globo.com\/sao-paulo\/sorocaba-jundiai\/noticia\/itatiba-confirma-segundo-caso-de-morador-com-febre-amarela.ghtml","lat":"-23","lng":"-46.83","local":"Itatiba (SP)","causality":[],"topics":[],"sensors":[]},{"id":"bac5808ce6b7c86268971296ccc09ceb","date":"2017-11-21 18:49:44","timestamp":"2018-03-15 11:14:07","title":"Aruj\u00e1 ter\u00e1 'Dia D' de vacina\u00e7\u00e3o contra a febre amarela no s\u00e1bado","url":"https:\/\/g1.globo.com\/sp\/mogi-das-cruzes-suzano\/noticia\/aruja-tera-dia-d-de-vacinacao-contra-a-febre-amarela-no-sabado.ghtml","lat":"-23.39","lng":"-46.32","local":"Aruja (SP)","causality":[],"topics":[],"sensors":[]},{"id":"87c4f19cbf730b8d7cd9b36f1c32e706","date":"2017-11-22 19:19:18","timestamp":"2018-03-08 01:53:48","title":"Po\u00e1 amplia imuniza\u00e7\u00e3o contra a Febre Amarela em 12 bairros","url":"https:\/\/g1.globo.com\/sp\/mogi-das-cruzes-suzano\/noticia\/poa-amplia-imunizacao-contra-a-febre-amarela.ghtml","lat":"-23.52","lng":"-46.34","local":"Poa (SP)","causality":[],"topics":[],"sensors":[]},{"id":"2cca1d18885488d0e5979ba75ccc9359","date":"2017-11-23 13:36:52","timestamp":"2018-03-09 07:36:00","title":"Exames n\u00e3o apontam febre amarela em macaco morto em Tr\u00eas ","url":"https:\/\/g1.globo.com\/mg\/sul-de-minas\/noticia\/exames-nao-apontam-febre-amarela-em-macaco-morto-em-tres-coracoes-mg.ghtml","lat":"-21.69","lng":"-45.25","local":"Tres Coracoes (MG)","causality":[],"topics":[],"sensors":[]},{"id":"3cdd610df3a8b3817438ad2927685ddb","date":"2017-12-01 11:20:18","timestamp":"2018-04-11 21:32:27","title":"Mairipor\u00e3 (SP) registra 22 mortes de macacos por febre amarela","url":"https:\/\/www.metropoles.com\/brasil\/saude-br\/mairipora-sp-registra-22-mortes-de-macacos-por-febre-amarela","lat":"-23.31","lng":"-46.58","local":"Mairipora (SP)","causality":[],"topics":[],"sensors":[]},{"id":"995d3d372828ff0e45f68cc1c2a663ed","date":"2017-12-04 19:59:26","timestamp":"2018-04-02 20:04:16","title":"S\u00e3o Roque registra segunda morte de macaco por febre amarela no ","url":"https:\/\/g1.globo.com\/sp\/sorocaba-jundiai\/noticia\/sao-roque-registra-segunda-morte-de-macaco-por-febre-amarela-no-ano.ghtml","lat":"-23.52","lng":"-47.13","local":"Sao Roque (SP)","causality":[],"topics":[],"sensors":[]},{"id":"2512adc5aadff9473ca09174c7fa8992","date":"2017-12-06 19:53:24","timestamp":"2018-04-13 01:08:17","title":"Febre amarela: Sobe para 13 o n\u00famero de macacos mortos pela ","url":"https:\/\/g1.globo.com\/sp\/sorocaba-jundiai\/noticia\/febre-amarela-sobe-para-13-o-numero-de-macacos-mortos-pela-doenca-em-sao-roque.ghtml","lat":"-23.52","lng":"-47.13","local":"Sao Roque (SP)","causality":[],"topics":[],"sensors":[]},{"id":"14e4482492f6f22356203c9284d6409f","date":"2017-12-13 19:03:18","timestamp":"2018-03-07 23:16:55","title":"Febre amarela: veja lista de postos de vacina\u00e7\u00e3o que abrir\u00e3o ","url":"https:\/\/g1.globo.com\/sp\/sao-paulo\/noticia\/febre-amarela-veja-lista-de-postos-de-vacinacao-que-abrirao-sabado-em-guarulhos.ghtml","lat":"-23.71","lng":"-46.84","local":"Itapecerica da Serra (SP)","causality":[],"topics":[],"sensors":[]},{"id":"ae681aef4f76ae13cb6c6867dbce9840","date":"2017-12-17 14:58:23","timestamp":"2018-03-12 08:14:44","title":"Aruj\u00e1 continua vacina\u00e7\u00e3o contra a febre amarela","url":"https:\/\/g1.globo.com\/sp\/mogi-das-cruzes-suzano\/noticia\/aruja-continua-vacinacao-contra-a-febre-amarela.ghtml","lat":"-23.39","lng":"-46.32","local":"Aruja (SP)","causality":[],"topics":[],"sensors":[]},{"id":"e7fed60f228a22957b39c134f642d763","date":"2017-12-25 19:23:03","timestamp":"2018-03-08 14:10:30","title":"Piedade tem mutir\u00e3o de vacina\u00e7\u00e3o contra a febre amarela ap\u00f3s ","url":"https:\/\/g1.globo.com\/sp\/sorocaba-jundiai\/noticia\/piedade-vai-ter-mutirao-de-vacinacao-contra-a-febre-amarela-apos-morte-de-macacos.ghtml","lat":"-23.71","lng":"-47.42","local":"Piedade (SP)","causality":[],"topics":[],"sensors":[]},{"id":"9c715e20f30cf4ce0398487a5f10330f","date":"2017-12-27 17:16:12","timestamp":"2018-03-07 23:16:55","title":"Mortes de macacos por febre amarela fazem prefeitura fechar mais ","url":"https:\/\/g1.globo.com\/sp\/sao-paulo\/noticia\/mortes-de-macacos-por-febre-amarela-fazem-prefeitura-fechar-mais-10-parques-em-sp.ghtml","lat":"-23.71","lng":"-46.84","local":"Itapecerica da Serra (SP)","causality":[],"topics":[],"sensors":[]},{"id":"fddc44467395f0672ad8c97958d42838","date":"2018-01-04 07:25:32","timestamp":"2018-03-26 02:42:51","title":"Morte sob suspeita de febre amarela na Grande BH reacende alerta ","url":"https:\/\/www.em.com.br\/app\/noticia\/gerais\/2018\/01\/04\/interna_gerais,928599\/morte-sob-suspeita-de-febre-amarela-na-grande-bh-reacende-alerta-em-mg.shtml","lat":"-19.76","lng":"-44.31","local":"Esmeraldas (MG)","causality":[],"topics":[],"sensors":[]},{"id":"453b78c7ccb3649cf4184b0e20643ffa","date":"2018-01-08 18:20:37","timestamp":"2018-03-12 03:38:59","title":"Febre amarela matou 13 pessoas no estado de SP desde janeiro de ","url":"https:\/\/g1.globo.com\/sp\/sao-paulo\/noticia\/febre-amarela-matou-13-pessoas-no-estado-de-sp-desde-janeiro-de-2017-diz-secretaria.ghtml","lat":"-23.52","lng":"-46.34","local":"Poa (SP)","causality":[],"topics":[],"sensors":[]},{"id":"173c1c5d583a176a302aa18cd2b132a4","date":"2018-01-08 22:54:51","timestamp":"2018-03-17 14:03:13","title":"Febre amarela matou 12 pessoas no estado de SP","url":"https:\/\/www.diariocajamarense.com\/2018\/01\/08\/febre-amarela-matou-12-pessoas-no-estado-de-sp.html","lat":"-23.35","lng":"-46.87","local":"Cajamar (SP)","causality":[],"topics":[],"sensors":[]},{"id":"e29f7e35f54a6352836c5e422d26423d","date":"2018-01-09 21:26:09","timestamp":"2018-03-08 06:52:09","title":"Mairipor\u00e3 (SP) tem atendimento refor\u00e7ado para febre amarela","url":"http:\/\/g1.globo.com\/jornal-nacional\/noticia\/2018\/01\/mairipora-sp-tem-atendimento-reforcado-para-febre-amarela.html","lat":"-23.31","lng":"-46.58","local":"Mairipora (SP)","causality":[],"topics":[],"sensors":[]},{"id":"2b730f88c5ffa006d91468d1d11a16cd","date":"2018-01-11 03:07:10","timestamp":"2018-03-08 04:56:22","title":"Procura de vacina contra febre amarela cresce 15 vezes em S\u00e3o ","url":"http:\/\/saude.estadao.com.br\/noticias\/geral,procura-de-vacina-contra-febre-amarela-cresce-15-vezes-em-sao-paulo,70002146356","lat":"-23.36","lng":"-46.74","local":"Caieiras (SP)","causality":[],"topics":[],"sensors":[]},{"id":"4c4b2b424ed5b72aac3f90231b63a251","date":"2018-01-11 03:07:10","timestamp":"2018-06-07 15:39:33","title":"Procura de vacina contra febre amarela cresce 15 vezes em S\u00e3o ","url":"https:\/\/saude.estadao.com.br\/noticias\/geral,procura-de-vacina-contra-febre-amarela-cresce-15-vezes-em-sao-paulo,70002146356","lat":"-23.36","lng":"-46.74","local":"Caieiras (SP)","causality":[],"topics":[],"sensors":[]},{"id":"100ed76470d29620cf5f59ce28d7d1a0","date":"2018-01-11 10:48:04","timestamp":"2018-04-02 20:04:16","title":"Febre amarela: S\u00e3o Roque divulga cronograma de vacina\u00e7\u00e3o","url":"https:\/\/g1.globo.com\/sp\/sorocaba-jundiai\/noticia\/febre-amarela-sao-roque-divulga-cronograma-de-vacinacao.ghtml","lat":"-23.52","lng":"-47.13","local":"Sao Roque (SP)","causality":[],"topics":[],"sensors":[]},{"id":"25568f9ca31b8219a6ce897c4de985b5","date":"2018-01-11 12:12:48","timestamp":"2018-03-17 20:52:25","title":"Santa Isabel come\u00e7a a vacinar contra a febre amarela tamb\u00e9m em ","url":"https:\/\/g1.globo.com\/sp\/mogi-das-cruzes-suzano\/noticia\/santa-isabel-comeca-a-vacinar-contra-a-febre-amarela-tambem-em-postos-voltantes-na-segunda.ghtml","lat":"-23.31","lng":"-46.22","local":"Santa Isabel (SP)","causality":[],"topics":[],"sensors":[]},{"id":"9a77739d7f40e2aa5f8abb40fa804cef","date":"2018-01-11 20:47:50","timestamp":"2018-03-07 23:16:55","title":"Morador de S\u00e3o Paulo \u00e9 internado em Salvador com febre amarela","url":"https:\/\/g1.globo.com\/ba\/bahia\/noticia\/morador-de-sao-paulo-e-internado-em-salvador-com-febre-amarela.ghtml","lat":"-23.71","lng":"-46.84","local":"Itapecerica da Serra (SP)","causality":[],"topics":[],"sensors":[]},{"id":"e9426d5117669925914553fda97a11b9","date":"2018-01-12 12:45:43","timestamp":"2018-03-13 08:21:56","title":"Sobe para 21 o n\u00famero de mortes por febre amarela no estado de SP","url":"https:\/\/g1.globo.com\/sp\/sao-paulo\/noticia\/sobe-para-21-o-numero-de-mortes-por-febre-amarela-no-estado-de-sp.ghtml","lat":"-23.36","lng":"-46.74","local":"Caieiras (SP)","causality":[],"topics":[],"sensors":[]},{"id":"0179d946917efb7f27122a4b119f285a","date":"2018-01-12 13:25:59","timestamp":"2018-04-08 02:07:54","title":"Com duas mortes, Mariana intensifica a\u00e7\u00f5es contra febre amarela e ","url":"https:\/\/www.em.com.br\/app\/noticia\/gerais\/2018\/01\/12\/interna_gerais,930536\/mariana-intensifica-acoes-contra-febre-amarela-e-alerta-para-carnaval.shtml","lat":"-20.37","lng":"-43.41","local":"Mariana (MG)","causality":[],"topics":[],"sensors":[]},{"id":"bf7aa62e1fee7bc514767038b7d030f3","date":"2018-01-12 16:20:31","timestamp":"2018-06-23 12:30:22","title":"Primeira morte por febre amarela em 2018 \u00e9 confirmada no Rio de ","url":"https:\/\/noticias.uol.com.br\/saude\/ultimas-noticias\/estado\/2018\/01\/12\/primeira-morte-por-febre-amarela-em-2018-e-confirmada-no-rio-de-janeiro.htm","lat":"-22.53","lng":"-42.98","local":"Guapimirim (RJ)","causality":[],"topics":[],"sensors":[]},{"id":"82a3dc45b60d6ba0bf6816b698bb14ce","date":"2018-01-12 17:08:23","timestamp":"2018-03-12 08:54:56","title":"Homem morre com suspeita de febre amarela em Valen\u00e7a, RJ ","url":"https:\/\/g1.globo.com\/rj\/sul-do-rio-costa-verde\/noticia\/homem-morre-com-suspeita-de-febre-amarela-em-valenca-rj-outros-tres-casos-sao-investigados.ghtml","lat":"-22.24","lng":"-43.7","local":"Valenca (RJ)","causality":[],"topics":[],"sensors":[]},{"id":"da63584004f58fc0981fffeec5100367","date":"2018-01-13 10:51:11","timestamp":"2018-04-08 20:32:33","title":"Ap\u00f3s mortes por febre amarela, Mairipor\u00e3 vacina mais de 90% da ","url":"https:\/\/g1.globo.com\/sp\/sao-paulo\/noticia\/apos-mortes-por-febre-amarela-mairipora-vacina-mais-de-90-da-populacao.ghtml","lat":"-23.31","lng":"-46.58","local":"Mairipora (SP)","causality":[],"topics":[],"sensors":[]},{"id":"b93909490ddf2d3bb2076cc401a857a7","date":"2018-01-13 15:47:41","timestamp":"2018-04-03 19:25:31","title":"Sobe para tr\u00eas o n\u00famero de mortes com suspeita de febre amarela ","url":"https:\/\/g1.globo.com\/rj\/sul-do-rio-costa-verde\/noticia\/sobe-para-tres-o-numero-de-mortes-com-suspeita-de-febre-amarela-em-valenca-rj.ghtml","lat":"-22.24","lng":"-43.7","local":"Valenca (RJ)","causality":[],"topics":[],"sensors":[]},{"id":"bd0b2ecc104ae9bcc8a2e8f9dcf969bf","date":"2018-01-13 21:15:18","timestamp":"2018-04-08 12:56:01","title":"Ap\u00f3s morte por febre amarela, cresce busca por vacina em ","url":"http:\/\/g1.globo.com\/jornal-nacional\/noticia\/2018\/01\/apos-morte-por-febre-amarela-cresce-busca-por-vacina-em-teresopolis-rj.html","lat":"-22.41","lng":"-42.96","local":"Teresopolis (RJ)","causality":[],"topics":[],"sensors":[]},{"id":"b89f9d964d644210ac7f978b909dffd2","date":"2018-01-15 08:07:12","timestamp":"2018-03-23 15:19:59","title":"Morador de S\u00e3o Paulo internado com febre amarela morre em ","url":"https:\/\/g1.globo.com\/ba\/bahia\/noticia\/morador-de-sao-paulo-internado-com-febre-amarela-morre-em-hospital-de-salvador.ghtml","lat":"-23.71","lng":"-46.84","local":"Itapecerica da Serra (SP)","causality":[],"topics":[],"sensors":[]},{"id":"74d30316deb96b060c028861d4cb750e","date":"2018-01-15 12:30:48","timestamp":"2018-04-08 12:56:01","title":"Teres\u00f3polis, RJ, segue com vacina\u00e7\u00e3o contra febre amarela e ","url":"https:\/\/g1.globo.com\/rj\/regiao-serrana\/noticia\/teresopolis-rj-segue-com-vacinacao-contra-febre-amarela-e-solicita-mais-10-mil-doses.ghtml","lat":"-22.41","lng":"-42.96","local":"Teresopolis (RJ)","causality":[],"topics":[],"sensors":[]},{"id":"7c57379c369f14fc2a25af469e6ef80b","date":"2018-01-17 11:26:44","timestamp":"2018-03-08 06:52:09","title":"Mairipor\u00e3 suspende vacina\u00e7\u00e3o contra febre amarela para ","url":"https:\/\/g1.globo.com\/sp\/sao-paulo\/noticia\/mairipora-suspende-vacinacao-contra-febre-amarela-para-moradores-de-outras-cidades.ghtml","lat":"-23.31","lng":"-46.58","local":"Mairipora (SP)","causality":[],"topics":[],"sensors":[]},{"id":"4297aeac4d72a7ee73af1d3da07cf9c4","date":"2018-01-17 18:33:36","timestamp":"2018-03-27 00:05:45","title":"Epicentro de febre amarela em SP, Mairipor\u00e3 decide vacinar s\u00f3 ","url":"http:\/\/www1.folha.uol.com.br\/cotidiano\/2018\/01\/1951184-epicentro-de-febre-amarela-em-sp-mairipora-decide-vacinar-so-morador.shtml","lat":"-23.31","lng":"-46.58","local":"Mairipora (SP)","causality":[],"topics":[],"sensors":[]},{"id":"142c240b615683260a63d1289413ddb4","date":"2018-01-17 18:33:36","timestamp":"2018-06-09 17:59:02","title":"Epicentro de febre amarela em SP, Mairipor\u00e3 decide vacinar s\u00f3 ","url":"https:\/\/www1.folha.uol.com.br\/cotidiano\/2018\/01\/1951184-epicentro-de-febre-amarela-em-sp-mairipora-decide-vacinar-so-morador.shtml","lat":"-23.31","lng":"-46.58","local":"Mairipora (SP)","causality":[],"topics":[],"sensors":[]},{"id":"dd6725879f9ebd0c30984d0c018c5b1f","date":"2018-01-17 19:25:28","timestamp":"2018-04-10 12:43:58","title":"Procura por vacina contra febre amarela dispara em Nova Friburgo ","url":"https:\/\/g1.globo.com\/rj\/regiao-serrana\/noticia\/procura-por-vacina-contra-febre-amarela-dispara-em-nova-friburgo-rj-e-moradores-enfrentam-filas.ghtml","lat":"-22.28","lng":"-42.53","local":"Nova Friburgo (RJ)","causality":[],"topics":[],"sensors":[]},{"id":"ec31c00b9011a9a2c213448bee60d197","date":"2018-01-17 19:53:44","timestamp":"2018-04-08 12:56:01","title":"Teres\u00f3polis, RJ, tem o segundo caso de febre amarela confirmado ","url":"https:\/\/g1.globo.com\/rj\/regiao-serrana\/noticia\/teresopolis-rj-tem-o-segundo-caso-de-febre-amarela-confirmado-em-2018.ghtml","lat":"-22.41","lng":"-42.96","local":"Teresopolis (RJ)","causality":[],"topics":[],"sensors":[]},{"id":"c97940ebbf61d33656347e09174fee21","date":"2018-01-17 20:11:37","timestamp":"2018-04-13 16:23:27","title":"Cabo Frio, RJ, tem vacinas contra febre amarela dispon\u00edveis em ","url":"https:\/\/g1.globo.com\/rj\/regiao-dos-lagos\/noticia\/cabo-frio-rj-tem-vacinas-contra-febre-amarela-disponiveis-em-unidades-de-saude-veja-quais.ghtml","lat":"-22.87","lng":"-42.01","local":"Cabo Frio (RJ)","causality":[],"topics":[],"sensors":[]},{"id":"a336db5ec242f4459283c84a19db59d2","date":"2018-01-17 20:13:00","timestamp":"2018-03-30 00:40:10","title":"Aruj\u00e1 recebe novas doses da vacina contra febre amarela e retoma ","url":"https:\/\/g1.globo.com\/sp\/mogi-das-cruzes-suzano\/noticia\/aruja-recebe-novas-doses-da-vacina-contra-febre-amarela-e-retoma-vacinacao-nesta-quinta.ghtml","lat":"-23.39","lng":"-46.32","local":"Aruja (SP)","causality":[],"topics":[],"sensors":[]},{"id":"52dd07ab1df5e1c829f7d64a2c353aa8","date":"2018-01-18 08:15:06","timestamp":"2018-03-10 09:59:26","title":"Cidades investigam 2 mortes com poss\u00edvel rela\u00e7\u00e3o com febre amarela","url":"https:\/\/www.jornalcruzeiro.com.br\/materia\/852669\/cidades-investigam-2-mortes-com-possivel-relacao-com-febre-amarela","lat":"-23.65","lng":"-47.22","local":"Ibiuna (SP)","causality":[],"topics":[],"sensors":[]},{"id":"76ec691cdae40ca2e079252811cdadd0","date":"2018-01-18 08:20:48","timestamp":"2018-03-15 11:34:47","title":"Mais de 900 mil pessoas j\u00e1 tomaram a vacina contra febre amarela ","url":"https:\/\/g1.globo.com\/sp\/sao-paulo\/noticia\/mais-de-900-mil-pessoas-ja-tomaram-a-vacina-contra-febre-amarela-na-cidade-de-sp-em-2018.ghtml","lat":"-23.31","lng":"-46.58","local":"Mairipora (SP)","causality":[],"topics":[],"sensors":[]},{"id":"74eff57faf0e97e92bde8599040f7552","date":"2018-01-18 10:21:17","timestamp":"2018-03-08 01:53:48","title":"Ap\u00f3s ficar sem doses, Po\u00e1 volta a vacinar contra febre amarela ","url":"https:\/\/g1.globo.com\/sp\/mogi-das-cruzes-suzano\/noticia\/apos-ficar-sem-doses-poa-volta-a-vacinar-contra-febre-amarela-nesta-quinta.ghtml","lat":"-23.52","lng":"-46.34","local":"Poa (SP)","causality":[],"topics":[],"sensors":[]},{"id":"db05dd5136636a153615418b9d2bc725","date":"2018-01-18 12:56:37","timestamp":"2018-03-31 20:03:02","title":"Nova Friburgo, RJ, tem dois casos suspeitos de febre amarela ","url":"https:\/\/g1.globo.com\/rj\/regiao-serrana\/noticia\/nova-friburgo-rj-tem-dois-casos-suspeitos-de-febre-amarela-segundo-a-prefeitura.ghtml","lat":"-22.28","lng":"-42.53","local":"Nova Friburgo (RJ)","causality":[],"topics":[],"sensors":[]},{"id":"6f11e31ebe151434b96704fdf30b3611","date":"2018-01-19 09:28:06","timestamp":"2018-09-06 10:28:30","title":"Prefeitura de Nova Lima confirma sexta morte por febre amarela","url":"https:\/\/g1.globo.com\/mg\/minas-gerais\/noticia\/prefeitura-de-nova-lima-confirma-sexta-morte-por-febre-amarela.ghtml","lat":"-19.98","lng":"-43.84","local":"Nova Lima (MG)","causality":[],"topics":[],"sensors":[]},{"id":"edcbf58a6bb5581421c2fda31194e0d3","date":"2018-01-19 10:42:00","timestamp":"2018-04-09 09:12:55","title":"Mau\u00e1 intensifica campanha de vacina\u00e7\u00e3o contra Febre Amarela","url":"http:\/\/www.abcdoabc.com.br\/maua\/noticia\/maua-intensifica-campanha-vacinacao-contra-febre-amarela-60167","lat":"-23.66","lng":"-46.46","local":"Maua (SP)","causality":[],"topics":[],"sensors":[]},{"id":"bfe0bcf993fb325db826821c6fc88188","date":"2018-01-19 15:37:06","timestamp":"2018-03-08 00:39:28","title":"Sabar\u00e1 confirma primeiro caso de febre amarela na cidade","url":"http:\/\/www.otempo.com.br\/cidades\/sabar%C3%A1-confirma-primeiro-caso-de-febre-amarela-na-cidade-1.1564596","lat":"-19.88","lng":"-43.8","local":"Sabara (MG)","causality":[],"topics":[],"sensors":[]},{"id":"7916a88c80b08efffbeb7d57c6e232aa","date":"2018-01-19 21:10:03","timestamp":"2018-03-08 09:05:04","title":"SP tem 2 mortes confirmadas por rea\u00e7\u00e3o \u00e0 vacina de febre amarela","url":"https:\/\/g1.globo.com\/sp\/sao-paulo\/noticia\/sp-tem-2-mortes-confirmadas-por-reacao-da-vacina-de-febre-amarela.ghtml","lat":"-23.65","lng":"-47.22","local":"Ibiuna (SP)","causality":[],"topics":[],"sensors":[]},{"id":"cc6371dcf3590463187aef231ff45108","date":"2018-01-19 21:38:11","timestamp":"2018-03-08 04:56:22","title":"Estado de SP tem 81 casos e 36 mortes por febre amarela em um ano","url":"http:\/\/www.valor.com.br\/brasil\/5269651\/estado-de-sp-tem-81-casos-e-36-mortes-por-febre-amarela-em-um-ano","lat":"-23.36","lng":"-46.74","local":"Caieiras (SP)","causality":[],"topics":[],"sensors":[]},{"id":"ce5b0632353934b9e6c63b1ac7dfa29d","date":"2018-01-19 21:38:11","timestamp":"2018-07-05 05:22:15","title":"Estado de SP tem 81 casos e 36 mortes por febre amarela em um ano","url":"https:\/\/www.valor.com.br\/brasil\/5269651\/estado-de-sp-tem-81-casos-e-36-mortes-por-febre-amarela-em-um-ano","lat":"-23.36","lng":"-46.74","local":"Caieiras (SP)","causality":[],"topics":[],"sensors":[]},{"id":"1f6aec2b969985ade1f782b0acc5e8ab","date":"2018-01-19 22:38:52","timestamp":"2018-06-29 22:29:04","title":"Prefeitura de Teres\u00f3polis, RJ, confirma quarto caso de febre amarela","url":"https:\/\/g1.globo.com\/rj\/regiao-serrana\/noticia\/prefeitura-de-teresopolis-rj-confirma-quarto-caso-de-febre-amarela.ghtml","lat":"-22.41","lng":"-42.96","local":"Teresopolis (RJ)","causality":[],"topics":[],"sensors":[]},{"id":"c9bb8f37af2784b6aee8f0bff47a0513","date":"2018-01-20 09:15:44","timestamp":"2018-04-03 11:32:19","title":"Febre amarela: MG decreta situa\u00e7\u00e3o de emerg\u00eancia nas \u00e1reas de ","url":"https:\/\/g1.globo.com\/mg\/minas-gerais\/noticia\/minas-gerais-decreta-situacao-de-emergencia-por-causa-do-surto-de-febre-amarela.ghtml","lat":"-20.02","lng":"-44.05","local":"Ibirite (MG)","causality":[],"topics":[],"sensors":[]},{"id":"051033eec48bf23f5d68e2cb06549134","date":"2018-01-20 13:40:30","timestamp":"2018-03-14 03:04:42","title":"Dez mil pessoas se vacinam contra a febre amarela em Nil\u00f3polis ","url":"https:\/\/g1.globo.com\/rj\/rio-de-janeiro\/noticia\/dez-mil-pessoas-se-vacinam-contra-a-febre-amarela-em-nilopolis-neste-sabado.ghtml","lat":"-22.8","lng":"-43.41","local":"Nilopolis (RJ)","causality":[],"topics":[],"sensors":[]},{"id":"515e5de564cd399765438bfab205cab5","date":"2018-01-20 13:57:34","timestamp":"2018-04-07 15:26:43","title":"Procura por vacina contra febre amarela movimenta postos de ","url":"https:\/\/g1.globo.com\/sp\/mogi-das-cruzes-suzano\/noticia\/procura-por-vacina-contra-febre-amarela-movimenta-postos-de-saude-de-poa-neste-sabado.ghtml","lat":"-23.52","lng":"-46.34","local":"Poa (SP)","causality":[],"topics":[],"sensors":[]},{"id":"e86aba277651245ba9c93454bc0722ea","date":"2018-01-20 15:08:25","timestamp":"2018-03-25 16:06:38","title":"Por que as filas para vacina\u00e7\u00e3o contra a febre amarela em S\u00e3o ","url":"https:\/\/g1.globo.com\/sp\/sao-paulo\/noticia\/por-que-as-filas-para-vacinacao-contra-a-febre-amarela-em-sao-paulo-estao-enormes-entenda.ghtml","lat":"-23.71","lng":"-46.84","local":"Itapecerica da Serra (SP)","causality":[],"topics":[],"sensors":[]},{"id":"9db827aafc6a03a8ce87fec06b6c66c6","date":"2018-01-22 20:05:14","timestamp":"2018-04-21 12:25:15","title":"Morre em Leopoldina paciente com suspeita de febre amarela","url":"https:\/\/g1.globo.com\/mg\/zona-da-mata\/noticia\/morre-em-leopoldina-paciente-com-suspeita-de-febre-amarela.ghtml","lat":"-21.53","lng":"-42.64","local":"Leopoldina (MG)","causality":[],"topics":[],"sensors":[]},{"id":"eb93a1a7faa3c978d1f4c52f8462cf76","date":"2018-01-23 12:41:54","timestamp":"2018-03-08 04:06:34","title":"Homem com suspeita de febre amarela morre no Hospital Escola ","url":"https:\/\/g1.globo.com\/mg\/sul-de-minas\/noticia\/homem-com-suspeita-de-febre-amarela-morre-no-hospital-escola-em-itajuba-mg.ghtml","lat":"-22.42","lng":"-45.45","local":"Itajuba (MG)","causality":[],"topics":[],"sensors":[]},{"id":"9777a98c6d97d7a25430fc80ffc1cb12","date":"2018-01-23 15:20:56","timestamp":"2018-03-08 10:06:04","title":"Minas Gerais libera recurso para cidades com casos confirmados de febre amarela","url":"https:\/\/g1.globo.com\/mg\/minas-gerais\/noticia\/minas-gerais-libera-recurso-para-cidades-com-casos-confirmados-de-febre-amarela.ghtml","lat":"-19.76","lng":"-44.31","local":"Esmeraldas (MG)","causality":[],"topics":[],"sensors":[]},{"id":"16f61d8b4dfc9d58337bb036a58275de","date":"2018-01-23 16:26:08","timestamp":"2018-03-12 14:05:00","title":"Exame confirma morte de moradora de Gaspar por febre amarela","url":"https:\/\/g1.globo.com\/sc\/santa-catarina\/noticia\/governo-confirma-morte-de-moradora-de-gaspar-por-febre-amarela.ghtml","lat":"-26.93","lng":"-48.95","local":"Gaspar (SC)","causality":[],"topics":[],"sensors":[]},{"id":"1805b766a02f97c4162d99b1fdd19b76","date":"2018-01-23 19:59:12","timestamp":"2018-04-19 02:30:05","title":"Confirmada quinta morte por febre amarela no Sul do Rio","url":"https:\/\/g1.globo.com\/rj\/sul-do-rio-costa-verde\/noticia\/confirmada-quinta-morte-por-febre-amarela-no-sul-do-rio.ghtml","lat":"-22.24","lng":"-43.7","local":"Valenca (RJ)","causality":[],"topics":[],"sensors":[]},{"id":"52c3f7d5a9c803f8aa689cd7178d88e2","date":"2018-01-23 20:54:01","timestamp":"2018-06-27 10:30:02","title":"Exame confirma que mulher de Gaspar morreu por febre amarela","url":"http:\/\/dc.clicrbs.com.br\/sc\/noticias\/noticia\/2018\/01\/exame-confirma-que-mulher-de-gaspar-morreu-por-febre-amarela-10129352.html","lat":"-26.93","lng":"-48.95","local":"Gaspar (SC)","causality":[],"topics":[],"sensors":[]},{"id":"8e1116ad9ffa5768239d7e97eaeceec8","date":"2018-01-24 05:16:56","timestamp":"2018-04-29 08:32:33","title":"Mairipor\u00e3 concentra metade dos casos de febre amarela de SP R7.com","url":"https:\/\/noticias.r7.com\/sao-paulo\/mairipora-concentra-metade-dos-casos-de-febre-amarela-de-sp-24012018","lat":"-23.31","lng":"-46.58","local":"Mairipora (SP)","causality":[],"topics":[],"sensors":[]},{"id":"81f649a175df68c29b71159f96919d34","date":"2018-01-24 11:46:58","timestamp":"2018-03-10 13:54:40","title":"Mais duas mortes suspeitas de febre amarela s\u00e3o investigadas no ","url":"https:\/\/g1.globo.com\/mg\/sul-de-minas\/noticia\/mais-duas-mortes-suspeitas-de-febre-amarela-sao-investigadas-no-sul-de-mg.ghtml","lat":"-20.89","lng":"-45.27","local":"Campo Belo (MG)","causality":[],"topics":[],"sensors":[]},{"id":"714abb2f8e06e6d0698ff5dc6b674999","date":"2018-01-24 14:33:08","timestamp":"2018-04-15 20:17:01","title":"Estado confirma 2\u00aa morte de macaco por febre amarela em Votorantim","url":"https:\/\/g1.globo.com\/sp\/sorocaba-jundiai\/noticia\/estado-confirma-2-morte-de-macaco-por-febre-amarela-em-votorantim.ghtml","lat":"-23.54","lng":"-47.43","local":"Votorantim (SP)","causality":[],"topics":[],"sensors":[]},{"id":"68f7ef4ba93ee1554f8641aa9513e6e7","date":"2018-01-25 09:52:51","timestamp":"2018-03-08 10:06:04","title":"Sobe para 162 n\u00famero de cidades em situa\u00e7\u00e3o de emerg\u00eancia por febre amarela em Minas Gerais","url":"https:\/\/g1.globo.com\/mg\/minas-gerais\/noticia\/governo-de-minas-inclui-68-cidades-no-decreto-de-situacao-de-emergencia-por-febre-amarela.ghtml","lat":"-19.76","lng":"-44.31","local":"Esmeraldas (MG)","causality":[],"topics":[],"sensors":[]},{"id":"5f81e4d9f1cd1233f75be58c16bb1ce5","date":"2018-01-25 10:17:49","timestamp":"2018-03-12 14:05:00","title":"Fam\u00edlia questiona atendimento a v\u00edtima de febre amarela em Gaspar","url":"http:\/\/dc.clicrbs.com.br\/sc\/noticias\/noticia\/2018\/01\/familia-questiona-atendimento-a-vitima-de-febre-amarela-em-gaspar-10131263.html","lat":"-26.93","lng":"-48.95","local":"Gaspar (SC)","causality":[],"topics":[],"sensors":[]},{"id":"9ef9280cdbacc54957c2613e68f2127a","date":"2018-01-25 12:16:41","timestamp":"2018-04-02 17:38:07","title":"Cruzeiro investiga primeiro caso suspeito de febre amarela","url":"https:\/\/g1.globo.com\/sp\/vale-do-paraiba-regiao\/noticia\/cruzeiro-investiga-primeiro-caso-suspeito-de-febre-amarela.ghtml","lat":"-22.57","lng":"-44.96","local":"Cruzeiro (SP)","causality":[],"topics":[],"sensors":[]},{"id":"c30603119c7c336bb22183f2749dd3c3","date":"2018-01-26 09:40:15","timestamp":"2018-04-14 00:13:25","title":"Febre amarela faz turismo despencar em Mairipor\u00e3 (SP) R7.com","url":"https:\/\/noticias.r7.com\/sp-no-ar\/videos\/febre-amarela-faz-turismo-despencar-em-mairipora-sp-26012018","lat":"-23.31","lng":"-46.58","local":"Mairipora (SP)","causality":[],"topics":[],"sensors":[]},{"id":"60d3e74ecb0f16255279ef371be487c6","date":"2018-01-26 09:40:15","timestamp":"2018-06-16 21:15:52","title":"Febre amarela faz turismo despencar em Mairipor\u00e3 (SP) R7.com","url":"http:\/\/noticias.r7.com\/sp-no-ar\/videos\/febre-amarela-faz-turismo-despencar-em-mairipora-sp-26012018","lat":"-23.31","lng":"-46.58","local":"Mairipora (SP)","causality":[],"topics":[],"sensors":[]},{"id":"659b6d9cc3bc4b9343ce00fec6c68487","date":"2018-01-26 15:27:21","timestamp":"2018-06-10 18:05:37","title":"Como a febre amarela alterou a rotina dos moradores de Mairipor\u00e3","url":"https:\/\/vejasp.abril.com.br\/cidades\/mairipora-crise-febre-amarela\/","lat":"-23.31","lng":"-46.58","local":"Mairipora (SP)","causality":[],"topics":[],"sensors":[]},{"id":"240281a74ceb1a2d1527a3ec3d3a7aa9","date":"2018-01-26 19:44:08","timestamp":"2018-03-08 14:10:30","title":"Piedade confirma primeira morte humana por febre amarela","url":"https:\/\/g1.globo.com\/sp\/sorocaba-jundiai\/noticia\/piedade-confirma-primeira-morte-humana-por-febre-amarela.ghtml","lat":"-23.71","lng":"-47.42","local":"Piedade (SP)","causality":[],"topics":[],"sensors":[]},{"id":"25d4a324a6e3e4a8e04229ecf5e7b4cb","date":"2018-01-27 16:33:31","timestamp":"2018-04-10 12:02:38","title":"Macaco morre v\u00edtima de febre amarela em Jacare\u00ed, SP","url":"https:\/\/g1.globo.com\/sp\/vale-do-paraiba-regiao\/noticia\/macaco-morre-vitima-de-febre-amarela-em-jacarei-sp.ghtml","lat":"-23.3","lng":"-45.96","local":"Jacarei (SP)","causality":[],"topics":[],"sensors":[]},{"id":"8d888f61c9ab739cfea6a4b998034f8b","date":"2018-01-28 11:31:23","timestamp":"2018-03-08 06:52:09","title":"Mairipor\u00e3 \u00e9 a cidade que mais registrou mortes por febre amarela ","url":"https:\/\/g1.globo.com\/sp\/sao-paulo\/noticia\/mairipora-e-a-cidade-que-mais-registrou-mortes-por-febre-amarela-no-estado-de-sp.ghtml","lat":"-23.31","lng":"-46.58","local":"Mairipora (SP)","causality":[],"topics":[],"sensors":[]},{"id":"8d7cfede1c7e1fb7e6d91bfbc2eba528","date":"2018-01-28 15:24:17","timestamp":"2018-04-02 18:21:35","title":"Vacina\u00e7\u00e3o contra febre amarela ser\u00e1 retomada nesta segunda em ","url":"https:\/\/g1.globo.com\/sp\/mogi-das-cruzes-suzano\/noticia\/vacinacao-contra-febre-amarela-sera-retomada-nesta-segunda-em-aruja.ghtml","lat":"-23.39","lng":"-46.32","local":"Aruja (SP)","causality":[],"topics":[],"sensors":[]},{"id":"9dd36ee9adc038a50575c987e294fc59","date":"2018-01-31 16:04:30","timestamp":"2018-06-08 17:49:47","title":"S\u00e3o Jos\u00e9 dos Campos confirma primeira morte por febre amarela","url":"https:\/\/g1.globo.com\/sp\/vale-do-paraiba-regiao\/noticia\/sao-jose-dos-campos-confirma-primeira-morte-por-febre-amarela.ghtml","lat":"-23.31","lng":"-46.58","local":"Mairipora (SP)","causality":[],"topics":[],"sensors":[]},{"id":"9cc83febdb9d505215659216c4e0dc1d","date":"2018-01-31 16:10:15","timestamp":"2018-03-08 04:25:15","title":"Hemorio reinicia campanha de vacina\u00e7\u00e3o contra a febre amarela","url":"https:\/\/oglobo.globo.com\/rio\/hemorio-reinicia-campanha-de-vacinacao-contra-febre-amarela-22349694","lat":"-22.43","lng":"-46.95","local":"Moji Mirim (SP)","causality":[],"topics":[],"sensors":[]},{"id":"4bba728d72f2332bd66a8aff807783f6","date":"2018-01-31 19:24:57","timestamp":"2018-04-18 23:44:48","title":"Sobe para 12 o n\u00famero de mortes por febre amarela no Estado do Rio","url":"https:\/\/oglobo.globo.com\/rio\/sobe-para-12-numero-de-mortes-por-febre-amarela-no-estado-do-rio-22351034","lat":"-22.43","lng":"-46.95","local":"Moji Mirim (SP)","causality":[],"topics":[],"sensors":[]},{"id":"124d6167ba684751203318579d25f733","date":"2018-02-01 15:31:54","timestamp":"2018-03-10 05:53:10","title":"Exames descartam casos suspeitos de febre amarela em Ita\u00fana","url":"https:\/\/g1.globo.com\/mg\/centro-oeste\/noticia\/exames-descartam-casos-suspeitos-de-febre-amarela-em-itauna.ghtml","lat":"-20.07","lng":"-44.57","local":"Itauna (MG)","causality":[],"topics":[],"sensors":[]},{"id":"088f3d0c7d569c8f7037bc4ad387164a","date":"2018-02-03 10:21:18","timestamp":"2018-04-22 06:31:05","title":"Quinta morte por febre amarela \u00e9 confirmada em Valen\u00e7a, no Sul do ","url":"https:\/\/g1.globo.com\/rj\/sul-do-rio-costa-verde\/noticia\/quinta-morte-por-febre-amarela-e-confirmada-em-valenca-no-sul-do-rj.ghtml","lat":"-22.24","lng":"-43.7","local":"Valenca (RJ)","causality":[],"topics":[],"sensors":[]},{"id":"9b8fa0ab5308b3623f1c8e772414ed3a","date":"2018-02-03 11:07:27","timestamp":"2018-03-21 04:03:52","title":"Sobe para 18 n\u00famero de mortos por febre amarela no RJ em 2018","url":"https:\/\/g1.globo.com\/rj\/rio-de-janeiro\/noticia\/sobe-para-17-numero-de-mortos-por-febre-amarela-no-rj-em-2018.ghtml","lat":"-22.65","lng":"-43.04","local":"Mage (RJ)","causality":[],"topics":[],"sensors":[]},{"id":"824422d1c40d4c9a0bf8db4006e6315a","date":"2018-02-03 11:17:24","timestamp":"2018-04-10 12:43:58","title":"Nova Friburgo, RJ, registra mais uma morte por febre amarela","url":"https:\/\/g1.globo.com\/rj\/regiao-serrana\/noticia\/nova-friburgo-rj-registra-mais-uma-morte-por-febre-amarela.ghtml","lat":"-22.28","lng":"-42.53","local":"Nova Friburgo (RJ)","causality":[],"topics":[],"sensors":[]},{"id":"4851faa7da8d220a75e9ae2ade2c0303","date":"2018-02-04 10:11:49","timestamp":"2018-04-02 13:36:46","title":"Maric\u00e1, RJ, tem caso confirmado de febre amarela","url":"https:\/\/g1.globo.com\/rj\/regiao-dos-lagos\/noticia\/marica-rj-tem-caso-confirmado-de-febre-amarela.ghtml","lat":"-22.91","lng":"-42.81","local":"Marica (RJ)","causality":[],"topics":[],"sensors":[]},{"id":"e457c4b7563fbcd3c2b535eae011e214","date":"2018-02-06 10:51:49","timestamp":"2018-03-07 18:06:54","title":"S\u00e3o Bernardo do Campo diz registrar 1\u00ba caso de febre amarela ","url":"http:\/\/www.valor.com.br\/brasil\/5309645\/sao-bernardo-do-campo-diz-registrar-1-caso-de-febre-amarela-urbana","lat":"-23.69","lng":"-46.56","local":"Sao Bernardo do Campo (SP)","causality":[],"topics":[],"sensors":[]},{"id":"4f9ee92187c693c19219c0931f058665","date":"2018-02-06 18:26:35","timestamp":"2018-03-07 21:31:18","title":"Com imuniza\u00e7\u00e3o baixa contra febre amarela, Santa Luzia refor\u00e7a ","url":"https:\/\/g1.globo.com\/mg\/minas-gerais\/noticia\/com-imunizacao-baixa-contra-febre-amarela-santa-luzia-reforca-vacinacao-em-estacao-do-move.ghtml","lat":"-19.77","lng":"-43.85","local":"Santa Luzia (MG)","causality":[],"topics":[],"sensors":[]},{"id":"55b946580918b0593868bf350b65fa05","date":"2018-02-06 18:49:55","timestamp":"2018-03-07 19:51:40","title":"Primeira morte por febre amarela \u00e9 confirmada no Alto Tiet\u00ea","url":"https:\/\/g1.globo.com\/sp\/mogi-das-cruzes-suzano\/noticia\/primeira-morte-por-febre-amarela-e-confirmada-no-alto-tiete.ghtml","lat":"-23.48","lng":"-46.34","local":"Itaquaquecetuba (SP)","causality":[],"topics":[],"sensors":[]},{"id":"36661aba39b227d238ec4772b131727c","date":"2018-02-06 18:49:55","timestamp":"2018-03-07 20:42:24","title":"Primeira morte por febre amarela \u00e9 confirmada no Alto Tiet\u00ea","url":"https:\/\/g1.globo.com\/sp\/mogi-das-cruzes-suzano\/noticia\/primeira-morte-por-febre-amarela-e-confirmada-no-alto-tiete.ghtml","lat":"-23.54","lng":"-46.31","local":"Suzano (SP)","causality":[],"topics":[],"sensors":[]},{"id":"daf2ee67d370eb95a66063cc9a7304dd","date":"2018-02-06 18:49:55","timestamp":"2018-03-08 06:31:29","title":"Primeira morte por febre amarela \u00e9 confirmada no Alto Tiet\u00ea","url":"https:\/\/g1.globo.com\/sp\/mogi-das-cruzes-suzano\/noticia\/primeira-morte-por-febre-amarela-e-confirmada-no-alto-tiete.ghtml","lat":"-23.39","lng":"-46.32","local":"Aruja (SP)","causality":[],"topics":[],"sensors":[]},{"id":"51b043439a83c1823095b37a19c77341","date":"2018-02-07 10:24:40","timestamp":"2018-03-08 06:45:57","title":"Surto de febre amarela j\u00e1 \u00e9 o mais mortal da hist\u00f3ria em Minas Gerais","url":"https:\/\/www.em.com.br\/app\/noticia\/gerais\/2018\/02\/07\/interna_gerais,936391\/surto-de-febre-amarela-ja-e-o-mais-mortal-da-historia-em-minas-gerais.shtml","lat":"-19.98","lng":"-43.84","local":"Nova Lima (MG)","causality":[],"topics":[],"sensors":[]},{"id":"f550d325d930e979a8af24a733797c49","date":"2018-02-07 12:34:50","timestamp":"2018-03-07 21:56:03","title":"Jacare\u00ed descarta febre amarela em tr\u00eas pacientes internados com ","url":"https:\/\/g1.globo.com\/sp\/vale-do-paraiba-regiao\/noticia\/jacarei-descarta-febre-amarela-em-tres-pacientes-internados-com-suspeita-da-doenca.ghtml","lat":"-23.3","lng":"-45.96","local":"Jacarei (SP)","causality":[],"topics":[],"sensors":[]},{"id":"a613cca5d0d6f2ec41647f1a02408814","date":"2018-02-07 17:34:29","timestamp":"2018-03-08 06:31:29","title":"S\u00e3o Jos\u00e9 confirma febre amarela em dois pacientes e investiga dois ","url":"https:\/\/g1.globo.com\/sp\/vale-do-paraiba-regiao\/noticia\/sao-jose-confirma-febre-amarela-em-dois-pacientes-e-investiga-dois-casos-suspeitos-da-doenca.ghtml","lat":"-23.39","lng":"-46.32","local":"Aruja (SP)","causality":[],"topics":[],"sensors":[]},{"id":"d0046b319bf07bcbc786539d0d6854ed","date":"2018-02-07 18:37:43","timestamp":"2018-03-08 12:33:03","title":"SC investiga tr\u00eas casos suspeitos de febre amarela","url":"http:\/\/dc.clicrbs.com.br\/sc\/estilo-de-vida\/noticia\/2018\/02\/sc-investiga-tres-casos-suspeitos-de-febre-amarela-10158782.html","lat":"-26.93","lng":"-48.95","local":"Gaspar (SC)","causality":[],"topics":[],"sensors":[]},{"id":"2cfd990db0d73cb4aa4fdf01a2702cb1","date":"2018-02-07 20:04:08","timestamp":"2018-03-09 07:12:45","title":"Ap\u00f3s morte por febre amarela, Sa\u00fade de Aruj\u00e1 promove bloqueio ","url":"https:\/\/g1.globo.com\/sp\/mogi-das-cruzes-suzano\/noticia\/apos-morte-por-febre-amarela-saude-de-aruja-promove-bloqueio-casa-a-casa-no-jardim-josely.ghtml","lat":"-23.39","lng":"-46.32","local":"Aruja (SP)","causality":[],"topics":[],"sensors":[]},{"id":"4f3cdfced01aa8289852a6ce725530c1","date":"2018-02-07 22:47:29","timestamp":"2018-03-08 12:33:03","title":"Santa Catarina notifica 16 casos de febre amarela e confirma um ","url":"https:\/\/ndonline.com.br\/florianopolis\/noticias\/santa-catarina-notifica-16-casos-de-febre-amarela-e-confirma-um-desde-o-inicio-do-ano","lat":"-26.93","lng":"-48.95","local":"Gaspar (SC)","causality":[],"topics":[],"sensors":[]},{"id":"0aa09d0582eefeb3ffc53b25558afc8e","date":"2018-02-08 12:14:13","timestamp":"2018-03-08 04:58:26","title":"SP muda estrat\u00e9gia de combate \u00e0 febre amarela e tenta se adiantar ","url":"https:\/\/g1.globo.com\/sp\/sao-paulo\/noticia\/sp-muda-estrategia-de-combate-a-febre-amarela-e-tenta-se-adiantar-ao-avanco-do-virus.ghtml","lat":"-24.18","lng":"-46.78","local":"Itanhaem (SP)","causality":[],"topics":[],"sensors":[]},{"id":"486f30db2b68b62a9aa537b65fdd6e0e","date":"2018-02-08 12:14:13","timestamp":"2018-03-08 10:24:51","title":"SP muda estrat\u00e9gia de combate \u00e0 febre amarela e tenta se adiantar ","url":"https:\/\/g1.globo.com\/sp\/sao-paulo\/noticia\/sp-muda-estrategia-de-combate-a-febre-amarela-e-tenta-se-adiantar-ao-avanco-do-virus.ghtml","lat":"-22.7","lng":"-46.76","local":"Amparo (SP)","causality":[],"topics":[],"sensors":[]},{"id":"5ef2825bd66874aaf7bcfa2cde2b45e8","date":"2018-02-08 12:14:13","timestamp":"2018-03-09 07:33:50","title":"SP muda estrat\u00e9gia de combate \u00e0 febre amarela e tenta se adiantar ","url":"https:\/\/g1.globo.com\/sp\/sao-paulo\/noticia\/sp-muda-estrategia-de-combate-a-febre-amarela-e-tenta-se-adiantar-ao-avanco-do-virus.ghtml","lat":"-23.31","lng":"-46.58","local":"Mairipora (SP)","causality":[],"topics":[],"sensors":[]},{"id":"f0f2f606cab5e2d341e7f355b3ce8221","date":"2018-02-08 12:28:18","timestamp":"2018-03-25 18:44:44","title":"Prefeitura de Jandira disponibiliza vacinas da Febre Amarela em ","url":"https:\/\/www.visaooeste.com.br\/prefeitura-de-jandira-disponibiliza-vacinas-da-febre-amarela-em-duas-datas-especiais\/","lat":"-23.52","lng":"-46.9","local":"Jandira (SP)","causality":[],"topics":[],"sensors":[]},{"id":"8ca850125f45ca70a20bcffedc9a1f2d","date":"2018-02-08 14:37:20","timestamp":"2018-03-08 07:11:01","title":"Sobe para seis o n\u00famero de mortes por febre amarela em Valen\u00e7a ","url":"https:\/\/g1.globo.com\/rj\/sul-do-rio-costa-verde\/noticia\/sobe-para-seis-o-numero-de-mortes-por-febre-amarela-em-valenca-no-sul-do-rio.ghtml","lat":"-22.24","lng":"-43.7","local":"Valenca (RJ)","causality":[],"topics":[],"sensors":[]},{"id":"101d04f03467392706b2a9dfa0b72162","date":"2018-02-08 15:48:48","timestamp":"2018-03-08 00:53:54","title":"Exames descartam febre amarela em dois macacos encontrados ","url":"https:\/\/g1.globo.com\/mg\/sul-de-minas\/noticia\/exames-descartam-febre-amarela-em-dois-macacos-encontrados-mortos-em-varginha-mg.ghtml","lat":"-21.55","lng":"-45.43","local":"Varginha (MG)","causality":[],"topics":[],"sensors":[]},{"id":"193eb8db9e693b45c93a1dfedf1ade15","date":"2018-02-08 16:51:29","timestamp":"2018-03-08 06:52:09","title":"Campinas confirma caso importado de febre amarela","url":"https:\/\/g1.globo.com\/sp\/campinas-regiao\/noticia\/campinas-confirma-caso-importado-de-febre-amarela.ghtml","lat":"-23.31","lng":"-46.58","local":"Mairipora (SP)","causality":[],"topics":[],"sensors":[]},{"id":"3da41a1c3da37befa84d7c7dba78e88a","date":"2018-02-08 18:42:49","timestamp":"2018-03-08 08:14:52","title":"Sa\u00fade confirma caso de febre amarela em humano em S\u00e3o Roque","url":"https:\/\/g1.globo.com\/sp\/sorocaba-jundiai\/noticia\/saude-confirma-caso-de-febre-amarela-em-humano-em-sao-roque.ghtml","lat":"-23.52","lng":"-47.13","local":"Sao Roque (SP)","causality":[],"topics":[],"sensors":[]},{"id":"c952751606d96360ad01cc6962e782c9","date":"2018-02-08 20:10:40","timestamp":"2018-03-08 00:04:24","title":"Dois irm\u00e3os morrem por febre amarela em Esp\u00edrito Santo do Pinhal","url":"https:\/\/g1.globo.com\/sp\/campinas-regiao\/noticia\/dois-irmaos-morrem-por-febre-amarela-em-espirito-santo-do-pinhal.ghtml","lat":"-22.37","lng":"-46.94","local":"Mogi Guacu (SP)","causality":[],"topics":[],"sensors":[]},{"id":"ebed051552536092451e3632215106b3","date":"2018-02-08 20:10:40","timestamp":"2018-03-08 17:43:55","title":"Dois irm\u00e3os morrem por febre amarela em Esp\u00edrito Santo do Pinhal","url":"https:\/\/g1.globo.com\/sp\/campinas-regiao\/noticia\/dois-irmaos-morrem-por-febre-amarela-em-espirito-santo-do-pinhal.ghtml","lat":"-22.19","lng":"-46.74","local":"Espirito Santo do Pinhal (SP)","causality":[],"topics":[],"sensors":[]},{"id":"93b9564dcbbaecc190469493cf3eb8b1","date":"2018-02-08 20:56:27","timestamp":"2018-03-08 07:11:01","title":"Sobe para 25 o n\u00famero de mortes por febre amarela no Estado do Rio","url":"https:\/\/oglobo.globo.com\/rio\/sobe-para-25-numero-de-mortes-por-febre-amarela-no-estado-do-rio-22381894","lat":"-22.24","lng":"-43.7","local":"Valenca (RJ)","causality":[],"topics":[],"sensors":[]},{"id":"05593011d1b2c629a8f93d4cd77c17b7","date":"2018-02-09 11:42:52","timestamp":"2018-03-07 23:25:09","title":"Itu confirma morte por febre amarela de rapaz de 26 anos","url":"https:\/\/g1.globo.com\/sp\/sorocaba-jundiai\/noticia\/itu-confirma-dois-casos-de-febre-amarela-e-uma-morte-causada-pela-doenca.ghtml","lat":"-23.26","lng":"-47.29","local":"Itu (SP)","causality":[],"topics":[],"sensors":[]},{"id":"e2c9ad6018410c0725b6e3f5177fa844","date":"2018-02-09 11:42:52","timestamp":"2018-03-08 06:52:09","title":"Itu confirma morte por febre amarela de rapaz de 26 anos","url":"https:\/\/g1.globo.com\/sp\/sorocaba-jundiai\/noticia\/itu-confirma-dois-casos-de-febre-amarela-e-uma-morte-causada-pela-doenca.ghtml","lat":"-23.31","lng":"-46.58","local":"Mairipora (SP)","causality":[],"topics":[],"sensors":[]},{"id":"3bb40329b45ab877aede1fd2189a01df","date":"2018-02-09 11:42:52","timestamp":"2018-03-08 23:24:12","title":"Itu confirma morte por febre amarela de rapaz de 26 anos","url":"https:\/\/g1.globo.com\/sp\/sorocaba-jundiai\/noticia\/itu-confirma-dois-casos-de-febre-amarela-e-uma-morte-causada-pela-doenca.ghtml","lat":"-23.09","lng":"-47.21","local":"Indaiatuba (SP)","causality":[],"topics":[],"sensors":[]},{"id":"2b5177d5227463fd355236c00baeaae6","date":"2018-02-09 11:52:38","timestamp":"2018-03-08 15:00:24","title":"Itu registra primeira morte por febre amarela","url":"http:\/\/www.canalitv.com.br\/noticia\/1326\/itu-registra-primeira-morte-por-febre-amarela.html","lat":"-23.21","lng":"-47.52","local":"Porto Feliz (SP)","causality":[],"topics":[],"sensors":[]},{"id":"07a218d1c8ffbd26ee8213446250dadc","date":"2018-02-09 13:07:22","timestamp":"2018-03-07 18:06:54","title":"S\u00e3o Bernardo ter\u00e1 vacina\u00e7\u00e3o contra a febre amarela no carnaval","url":"https:\/\/g1.globo.com\/sp\/sao-paulo\/noticia\/sao-bernardo-tera-vacinacao-contra-a-febre-amarela-no-carnaval.ghtml","lat":"-23.69","lng":"-46.56","local":"Sao Bernardo do Campo (SP)","causality":[],"topics":[],"sensors":[]},{"id":"a5207be5f2db9e4fdb8ff4451b877db2","date":"2018-02-09 13:23:00","timestamp":"2018-03-08 04:58:26","title":"Governo de SP confirma primeira morte por febre amarela na ","url":"https:\/\/g1.globo.com\/sp\/santos-regiao\/mais-saude\/noticia\/governo-de-sp-confirma-primeira-morte-por-febre-amarela-na-baixada-santista.ghtml","lat":"-24.18","lng":"-46.78","local":"Itanhaem (SP)","causality":[],"topics":[],"sensors":[]},{"id":"45cb5d0c590d058170528fcab70d0263","date":"2018-02-09 13:23:00","timestamp":"2018-03-08 10:35:22","title":"Governo de SP confirma primeira morte por febre amarela na ","url":"https:\/\/g1.globo.com\/sp\/santos-regiao\/mais-saude\/noticia\/governo-de-sp-confirma-primeira-morte-por-febre-amarela-na-baixada-santista.ghtml","lat":"-24.32","lng":"-46.99","local":"Peruibe (SP)","causality":[],"topics":[],"sensors":[]},{"id":"66b19b7cf510309126d04f8e06ca997a","date":"2018-02-09 14:26:30","timestamp":"2018-03-10 18:20:15","title":"Irm\u00e3os morrem com febre amarela e p\u00f5em em alerta Esp\u00edrito Santo ","url":"http:\/\/sao-paulo.estadao.com.br\/noticias\/geral,irmaos-morrem-com-febre-amarela-e-poem-em-alerta-espirito-santo-do-pinhal,70002184600","lat":"-22.19","lng":"-46.74","local":"Espirito Santo do Pinhal (SP)","causality":[],"topics":[],"sensors":[]},{"id":"caf9e36a6e952c713f717c05199e084b","date":"2018-02-09 14:57:21","timestamp":"2018-03-09 07:33:50","title":"Irm\u00e3os morrem com febre amarela em cidade do interior de SP","url":"https:\/\/istoe.com.br\/irmaos-morrem-com-febre-amarela-e-poem-em-alerta-espirito-santo-do-pinhal\/","lat":"-23.31","lng":"-46.58","local":"Mairipora (SP)","causality":[],"topics":[],"sensors":[]},{"id":"5cffb360c8f7a05242cbe2448173cb65","date":"2018-02-09 20:46:55","timestamp":"2018-03-09 07:33:50","title":"Cidade de SP registra primeiro caso de febre amarela contra\u00edda no ","url":"https:\/\/g1.globo.com\/sp\/sao-paulo\/noticia\/cidade-de-sp-registra-primeiro-caso-autoctone-de-febre-amarela.ghtml","lat":"-23.31","lng":"-46.58","local":"Mairipora (SP)","causality":[],"topics":[],"sensors":[]},{"id":"32d6c60b37a54470c1b1399451f98376","date":"2018-02-09 20:52:47","timestamp":"2018-03-07 18:19:51","title":"Santo Andr\u00e9, no ABC, confirma morte por febre amarela","url":"https:\/\/g1.globo.com\/sp\/sao-paulo\/noticia\/santo-andre-no-abc-confirma-morte-por-febre-amarela.ghtml","lat":"-23.66","lng":"-46.53","local":"Santo Andre (SP)","causality":[],"topics":[],"sensors":[]},{"id":"b9675d9ab117b238b769b3dd58e19108","date":"2018-02-09 21:06:13","timestamp":"2018-04-26 05:37:43","title":"Estado confirma morte de morador de Itanha\u00e9m por febre amarela","url":"http:\/\/www.atribuna.com.br\/noticias\/noticias-detalhe\/cidades\/estado-confirma-morte-de-morador-de-itanhaem-por-febre-amarela\/?cHash=816fea3a099dbbafb0ae20d26803d03e","lat":"-24.18","lng":"-46.78","local":"Itanhaem (SP)","causality":[],"topics":[],"sensors":[]},{"id":"c77feee2610a0e0430784002713a32c1","date":"2018-02-09 23:13:54","timestamp":"2018-03-08 10:24:51","title":"Cidade de S\u00e3o Paulo registra primeiro caso local de febre amarela","url":"https:\/\/veja.abril.com.br\/saude\/cidade-de-sao-paulo-registra-primeiro-caso-local-de-febre-amarela\/","lat":"-22.7","lng":"-46.76","local":"Amparo (SP)","causality":[],"topics":[],"sensors":[]},{"id":"cbcbcd392528bf0a961bc73296638355","date":"2018-02-13 17:01:27","timestamp":"2018-03-07 23:25:09","title":"Itu registra aumento na procura por vacina contra a febre amarela ","url":"https:\/\/g1.globo.com\/sp\/sorocaba-jundiai\/noticia\/itu-registra-aumento-na-procura-por-vacina-contra-a-febre-amarela-durante-o-carnaval.ghtml","lat":"-23.26","lng":"-47.29","local":"Itu (SP)","causality":[],"topics":[],"sensors":[]},{"id":"524cd1c3b8d2b1ea479cd4d466faafbf","date":"2018-02-14 12:12:48","timestamp":"2018-03-09 13:23:35","title":"Surto de febre amarela pode ser colocado \"na conta da Samarco ","url":"http:\/\/www.vermelho.org.br\/noticia\/307654-1","lat":"-20.37","lng":"-43.41","local":"Mariana (MG)","causality":[],"topics":[],"sensors":[]},{"id":"8d33b441435d373313c632a5e573330f","date":"2018-02-14 15:15:42","timestamp":"2018-03-09 16:24:24","title":"Campos do Jord\u00e3o, fora da \u00e1rea de risco da Febre Amarela, atrai ","url":"https:\/\/www.sopacultural.com\/campos-do-jordao-fora-da-area-de-risco-da-febre-amarela-atrai-novos-visitantes\/","lat":"-22.73","lng":"-45.59","local":"Campos do Jordao (SP)","causality":[],"topics":[],"sensors":[]},{"id":"f989a4adde8f130a6c10f77b5a87b16d","date":"2018-02-15 08:33:49","timestamp":"2018-03-08 06:52:09","title":"Febre amarela afasta turista de \u00e1reas de mata no interior paulista","url":"https:\/\/noticias.r7.com\/sao-paulo\/febre-amarela-afasta-turista-de-areas-de-mata-no-interior-paulista-15022018","lat":"-23.31","lng":"-46.58","local":"Mairipora (SP)","causality":[],"topics":[],"sensors":[]},{"id":"823fc9a5bc6eaa8cff15f466c65e7c4c","date":"2018-02-15 09:53:25","timestamp":"2018-03-07 22:54:12","title":"Mulher de Ferraz \u00e9 diagnosticada com febre amarela ap\u00f3s tomar ","url":"https:\/\/g1.globo.com\/sp\/mogi-das-cruzes-suzano\/noticia\/mulher-de-ferraz-e-diagnosticada-com-febre-amarela-apos-tomar-vacina-diz-prefeitura.ghtml","lat":"-23.54","lng":"-46.36","local":"Ferraz de Vasconcelos (SP)","causality":[],"topics":[],"sensors":[]},{"id":"d3d5f7c9453f036cf346762f7d594596","date":"2018-02-15 11:00:02","timestamp":"2018-03-08 00:29:09","title":"Prefeitura divulga diagn\u00f3stico de febre amarela em quatro ","url":"https:\/\/g1.globo.com\/mg\/zona-da-mata\/noticia\/prefeitura-divulga-diagnostico-de-febre-amarela-em-quatro-pacientes-atendidos-em-barbacena.ghtml","lat":"-21.22","lng":"-43.77","local":"Barbacena (MG)","causality":[],"topics":[],"sensors":[]},{"id":"ccff40fc96ea1fe4bb2427d9414a1583","date":"2018-02-15 12:31:58","timestamp":"2018-03-23 14:56:56","title":"Ferraz de Vasconcelos confirma primeiro caso de febre amarela R7.com","url":"https:\/\/noticias.r7.com\/saude\/ferraz-de-vasconcelos-confirma-primeiro-caso-de-febre-amarela-16022018","lat":"-23.54","lng":"-46.36","local":"Ferraz de Vasconcelos (SP)","causality":[],"topics":[],"sensors":[]},{"id":"cf7a3f00f1f6b9c0de86353d6a6d1912","date":"2018-02-15 12:57:51","timestamp":"2018-03-08 01:39:22","title":"Ribeir\u00e3o Pires registra a segunda morte por febre amarela no ABC","url":"https:\/\/www.reporterdiario.com.br\/noticia\/2468276\/ribeirao-pires-registra-a-segunda-morte-por-febre-amarela-no-abc\/","lat":"-23.71","lng":"-46.41","local":"Ribeirao Pires (SP)","causality":[],"topics":[],"sensors":[]},{"id":"730b1062cac3fd241a23623ff9cd656a","date":"2018-02-15 15:47:34","timestamp":"2018-03-08 14:10:30","title":"Piedade confirma segunda morte por febre amarela no ano","url":"https:\/\/g1.globo.com\/sp\/sorocaba-jundiai\/noticia\/saude-confirma-segunda-morte-humana-por-febre-amarela-em-piedade.ghtml","lat":"-23.71","lng":"-47.42","local":"Piedade (SP)","causality":[],"topics":[],"sensors":[]},{"id":"83aa627490807d977c102b7e25549695","date":"2018-02-15 16:00:58","timestamp":"2018-03-11 19:38:34","title":"Com baixa ades\u00e3o, campanha contra febre amarela vacina 19% do p\u00fablico-alvo em RJ e SP","url":"https:\/\/g1.globo.com\/bemestar\/noticia\/rj-e-sp-vacinaram-19-do-publico-alvo-na-campanha-de-vacinacao-da-febre-amarela.ghtml","lat":"-22.9","lng":"-43.2","local":"Rio de Janeiro (RJ)","causality":[],"topics":[],"sensors":[]},{"id":"cffd68416f561c4d79d34b94f9d82b38","date":"2018-02-15 16:41:30","timestamp":"2018-03-08 15:06:40","title":"Governo de MG confirma novas mortes por febre amarela na Zona ","url":"https:\/\/g1.globo.com\/mg\/zona-da-mata\/noticia\/governo-de-mg-confirma-novas-mortes-por-febre-amarela-na-zona-da-mata.ghtml","lat":"-21.45","lng":"-43.55","local":"Santos Dumont (MG)","causality":[],"topics":[],"sensors":[]},{"id":"ef8444d77ea9b6e61126c0a97e619473","date":"2018-02-15 17:07:12","timestamp":"2018-03-08 08:38:46","title":"Febre amarela afasta turista de \u00e1reas de mata","url":"https:\/\/www.diariocajamarense.com\/2018\/02\/15\/febre-amarela-afasta-turista-de-areas-de-mata.html","lat":"-23.35","lng":"-46.87","local":"Cajamar (SP)","causality":[],"topics":[],"sensors":[]},{"id":"92a606a6d820a2199d271a841d5dcbf4","date":"2018-02-15 18:21:54","timestamp":"2018-03-08 06:31:29","title":"Prefeitura de S\u00e3o Jos\u00e9 confirma morte de macaco por febre amarela","url":"https:\/\/g1.globo.com\/sp\/vale-do-paraiba-regiao\/noticia\/prefeitura-de-sao-jose-confirma-morte-de-macaco-por-febre-amarela.ghtml","lat":"-23.39","lng":"-46.32","local":"Aruja (SP)","causality":[],"topics":[],"sensors":[]},{"id":"0267e12125325c97bedc712203a274df","date":"2018-02-15 18:21:54","timestamp":"2018-03-08 06:52:09","title":"Prefeitura de S\u00e3o Jos\u00e9 confirma morte de macaco por febre amarela","url":"https:\/\/g1.globo.com\/sp\/vale-do-paraiba-regiao\/noticia\/prefeitura-de-sao-jose-confirma-morte-de-macaco-por-febre-amarela.ghtml","lat":"-23.31","lng":"-46.58","local":"Mairipora (SP)","causality":[],"topics":[],"sensors":[]},{"id":"5455d41355750f7b37c6c9b283aaefaa","date":"2018-02-15 18:35:47","timestamp":"2018-03-08 10:35:22","title":"Baixada Santista tem oito casos suspeitos de febre amarela","url":"http:\/\/www.diariodolitoral.com.br\/cotidiano\/baixada-santista-tem-oito-casos-suspeitos-de-febre-amarela\/108471\/","lat":"-24.32","lng":"-46.99","local":"Peruibe (SP)","causality":[],"topics":[],"sensors":[]},{"id":"a722b61c3da21f1967c93e5097aecf9e","date":"2018-02-15 19:12:00","timestamp":"2018-03-07 21:56:03","title":"Sobe para seis o n\u00famero de casos suspeitos de febre amarela em ","url":"https:\/\/g1.globo.com\/sp\/vale-do-paraiba-regiao\/noticia\/sobe-para-seis-o-numero-de-casos-suspeitos-de-febre-amarela-em-jacarei.ghtml","lat":"-23.3","lng":"-45.96","local":"Jacarei (SP)","causality":[],"topics":[],"sensors":[]},{"id":"2cfd92d4a434c5ad60650b03625e2b0f","date":"2018-02-15 19:52:04","timestamp":"2018-03-08 06:45:57","title":"Morre jovem com suspeita de febre amarela ap\u00f3s ficar internado na ","url":"https:\/\/g1.globo.com\/sp\/santos-regiao\/mais-saude\/noticia\/morre-jovem-com-suspeita-de-febre-amarela-apos-ficar-internado-na-uti-em-santos-sp.ghtml","lat":"-19.98","lng":"-43.84","local":"Nova Lima (MG)","causality":[],"topics":[],"sensors":[]},{"id":"574879d4a20bbb4b5494eaa582ed21b6","date":"2018-02-15 19:52:04","timestamp":"2018-03-08 10:35:22","title":"Morre jovem com suspeita de febre amarela ap\u00f3s ficar internado na ","url":"https:\/\/g1.globo.com\/sp\/santos-regiao\/mais-saude\/noticia\/morre-jovem-com-suspeita-de-febre-amarela-apos-ficar-internado-na-uti-em-santos-sp.ghtml","lat":"-24.32","lng":"-46.99","local":"Peruibe (SP)","causality":[],"topics":[],"sensors":[]},{"id":"b21f6766449bae69758c02f3b9d02efc","date":"2018-02-15 20:36:32","timestamp":"2018-03-08 12:33:03","title":"SC investiga dois casos suspeitos de febre amarela","url":"http:\/\/dc.clicrbs.com.br\/sc\/estilo-de-vida\/noticia\/2018\/02\/sc-investiga-dois-casos-suspeitos-de-febre-amarela-10165123.html","lat":"-26.93","lng":"-48.95","local":"Gaspar (SC)","causality":[],"topics":[],"sensors":[]},{"id":"61c096974514aa54d97085f9e93c2a00","date":"2018-02-16 09:16:31","timestamp":"2018-03-16 00:39:46","title":"Mau\u00e1 faz campanha itinerante de vacina\u00e7\u00e3o contra Febre Amarela","url":"http:\/\/www.abcdoabc.com.br\/maua\/noticia\/maua-faz-campanha-itinerante-vacinacao-contra-febre-amarela-61194","lat":"-23.66","lng":"-46.46","local":"Maua (SP)","causality":[],"topics":[],"sensors":[]},{"id":"d775238982fb4bb1d947f32803b27b0f","date":"2018-02-16 11:22:27","timestamp":"2018-03-17 19:19:51","title":"Aposentado que morreu por febre amarela recusou vacina e se ","url":"https:\/\/g1.globo.com\/sp\/sorocaba-jundiai\/noticia\/aposentado-que-morreu-por-febre-amarela-recusou-vacina-diz-prefeitura-de-piedade.ghtml","lat":"-23.71","lng":"-47.42","local":"Piedade (SP)","causality":[],"topics":[],"sensors":[]},{"id":"09bb4d2870fd630971435a73da5bfdea","date":"2018-02-16 14:47:06","timestamp":"2018-03-07 20:42:24","title":"Suzano intensifica vacina\u00e7\u00e3o contra febre amarela neste s\u00e1bado","url":"https:\/\/g1.globo.com\/sp\/mogi-das-cruzes-suzano\/noticia\/suzano-intensifica-vacinacao-contra-febre-amarela-neste-sabado.ghtml","lat":"-23.54","lng":"-46.31","local":"Suzano (SP)","causality":[],"topics":[],"sensors":[]},{"id":"bc771e5aaacc03af060bb7f9c953a198","date":"2018-02-16 15:06:51","timestamp":"2018-03-08 04:06:34","title":"Jovem morre com suspeita de febre amarela em Braz\u00f3polis, MG","url":"https:\/\/g1.globo.com\/mg\/sul-de-minas\/noticia\/jovem-morto-com-suspeita-de-febre-amarela-e-enterrado-em-brazopolis-mg.ghtml","lat":"-22.42","lng":"-45.45","local":"Itajuba (MG)","causality":[],"topics":[],"sensors":[]},{"id":"c568018d52067ef94eb299fbfeac3228","date":"2018-02-16 16:24:41","timestamp":"2018-03-09 00:28:06","title":"Bragan\u00e7a Paulista confirma duas primeiras mortes por febre amarela","url":"https:\/\/g1.globo.com\/sp\/vale-do-paraiba-regiao\/noticia\/braganca-paulista-confirma-duas-primeiras-mortes-por-febre-amarela.ghtml","lat":"-22.95","lng":"-46.54","local":"Braganca Paulista (SP)","causality":[],"topics":[],"sensors":[]},{"id":"875058a119a5810bd87c314821c7c7de","date":"2018-02-16 17:05:31","timestamp":"2018-03-09 00:03:21","title":"Sobe para oito o n\u00famero de casos confirmados de febre amarela ","url":"https:\/\/g1.globo.com\/rj\/sul-do-rio-costa-verde\/noticia\/sobe-para-oito-o-numero-de-casos-confirmados-de-febre-amarela-em-angra.ghtml","lat":"-23","lng":"-44.31","local":"Angra dos Reis (RJ)","causality":[],"topics":[],"sensors":[]},{"id":"7922586d5576283436d0f3c6db85f72e","date":"2018-02-16 19:10:47","timestamp":"2018-03-15 11:34:47","title":"Neste s\u00e1bado, SP tem novo 'Dia D' de vacina\u00e7\u00e3o contra febre amarela","url":"http:\/\/www.saopaulo.sp.gov.br\/spnoticias\/neste-sabado-sp-tem-novo-dia-d-de-vacinacao-contra-febre-amarela\/","lat":"-23.31","lng":"-46.58","local":"Mairipora (SP)","causality":[],"topics":[],"sensors":[]},{"id":"883608b1e6159e53a1e1904684a70f27","date":"2018-02-16 19:22:02","timestamp":"2018-03-08 10:24:51","title":"S\u00e3o Paulo tem segundo \"Dia D\" contra a febre amarela no s\u00e1bado","url":"https:\/\/noticias.r7.com\/saude\/sao-paulo-tem-segundo-dia-d-contra-a-febre-amarela-no-sabado-16022018","lat":"-22.7","lng":"-46.76","local":"Amparo (SP)","causality":[],"topics":[],"sensors":[]},{"id":"a8526bc48cb51fd162269eb6cc049a43","date":"2018-02-16 19:25:51","timestamp":"2018-03-08 02:25:14","title":"Votorantim investiga dois casos suspeitos de febre amarela","url":"https:\/\/g1.globo.com\/sp\/sorocaba-jundiai\/noticia\/votorantim-investiga-dois-casos-suspeitos-de-febre-amarela.ghtml","lat":"-23.54","lng":"-47.43","local":"Votorantim (SP)","causality":[],"topics":[],"sensors":[]},{"id":"da25bd2a94917eab2225347202f204e6","date":"2018-02-16 19:50:59","timestamp":"2018-03-10 07:54:30","title":"SP registra quatro novos casos aut\u00f3ctones de febre amarela R7.com","url":"https:\/\/noticias.r7.com\/saude\/sp-registra-quatro-novos-casos-autoctones-de-febre-amarela-16022018","lat":"-23.31","lng":"-46.58","local":"Mairipora (SP)","causality":[],"topics":[],"sensors":[]},{"id":"40853ef0910f9e7b8111908248481dae","date":"2018-02-16 20:20:51","timestamp":"2018-03-08 06:52:09","title":"Tr\u00eas pessoas morrem por febre amarela silvestre na capital paulista","url":"http:\/\/agenciabrasil.ebc.com.br\/geral\/noticia\/2018-02\/tres-pessoas-morrem-por-febre-amarela-silvestre-na-capital-paulista","lat":"-23.31","lng":"-46.58","local":"Mairipora (SP)","causality":[],"topics":[],"sensors":[]},{"id":"1e931ce349d3cb8ae3ab9cabd93fe887","date":"2018-02-16 21:19:13","timestamp":"2018-03-13 10:15:15","title":"Chega a 5 o n\u00famero de casos aut\u00f3ctones de febre amarela na ","url":"https:\/\/novo.folhavitoria.com.br\/geral\/noticia\/2018\/02\/chega-a-5-o-numero-de-casos-autoctones-de-febre-amarela-na-cidade-de-sp","lat":"-19.98","lng":"-43.84","local":"Nova Lima (MG)","causality":[],"topics":[],"sensors":[]},{"id":"4740de8bd4e07f7457b372d952a0fcd7","date":"2018-02-16 21:51:55","timestamp":"2018-03-08 05:00:30","title":"S\u00e3o Paulo registra 3 mortes por febre amarela contra\u00edda na cidade","url":"https:\/\/www.brasil247.com\/pt\/247\/sp247\/342576\/S%C3%A3o-Paulo-registra-3-mortes-por-febre-amarela-contra%C3%ADda-na-cidade.htm","lat":"-23.1","lng":"-45.7","local":"Cacapava (SP)","causality":[],"topics":[],"sensors":[]},{"id":"e418b866faaa18122b0a746ba17e6d8f","date":"2018-02-16 21:51:55","timestamp":"2018-03-09 07:33:50","title":"S\u00e3o Paulo registra 3 mortes por febre amarela contra\u00edda na cidade","url":"https:\/\/www.brasil247.com\/pt\/247\/sp247\/342576\/S%C3%A3o-Paulo-registra-3-mortes-por-febre-amarela-contra%C3%ADda-na-cidade.htm","lat":"-23.31","lng":"-46.58","local":"Mairipora (SP)","causality":[],"topics":[],"sensors":[]},{"id":"49daad009590717060b54bd64becbda3","date":"2018-02-16 21:51:55","timestamp":"2018-03-11 19:05:26","title":"S\u00e3o Paulo registra 3 mortes por febre amarela contra\u00edda na cidade","url":"https:\/\/www.brasil247.com\/pt\/247\/sp247\/342576\/S%C3%A3o-Paulo-registra-3-mortes-por-febre-amarela-contra%C3%ADda-na-cidade.htm","lat":"-24.08","lng":"-46.62","local":"Mongagua (SP)","causality":[],"topics":[],"sensors":[]},{"id":"c2a787fa5a2ba1bbe3b2f152fe2c6302","date":"2018-02-16 21:51:55","timestamp":"2018-03-18 16:06:10","title":"S\u00e3o Paulo registra 3 mortes por febre amarela contra\u00edda na cidade","url":"https:\/\/www.brasil247.com\/pt\/247\/sp247\/342576\/S%C3%A3o-Paulo-registra-3-mortes-por-febre-amarela-contra%C3%ADda-na-cidade.htm","lat":"-24.32","lng":"-46.99","local":"Peruibe (SP)","causality":[],"topics":[],"sensors":[]},{"id":"57f9763233731e92c22b22045f673feb","date":"2018-02-17 08:11:23","timestamp":"2018-03-08 05:00:30","title":"Postos de sa\u00fade t\u00eam vacina\u00e7\u00e3o contra febre amarela neste s\u00e1bado","url":"https:\/\/g1.globo.com\/sp\/vale-do-paraiba-regiao\/noticia\/postos-de-saude-tem-vacinacao-contra-febre-amarela-neste-sabado.ghtml","lat":"-23.1","lng":"-45.7","local":"Cacapava (SP)","causality":[],"topics":[],"sensors":[]},{"id":"374d8d878a5a39748e28b6f7988e5261","date":"2018-02-17 10:04:12","timestamp":"2018-03-07 23:47:52","title":"Primeiras mortes por febre amarela s\u00e3o confirmadas em Bragan\u00e7a ","url":"http:\/\/brasil.estadao.com.br\/noticias\/geral,primeiras-mortes-por-febre-amarela-sao-confirmadas-em-braganca-paulista,70002193137","lat":"-22.95","lng":"-46.54","local":"Braganca Paulista (SP)","causality":[],"topics":[],"sensors":[]},{"id":"87fd4a28c26b4721958c80c7f754758b","date":"2018-02-17 16:53:38","timestamp":"2018-03-07 20:42:24","title":"Suzano faz mutir\u00e3o para vacina\u00e7\u00e3o contra a febre amarela","url":"https:\/\/g1.globo.com\/sp\/mogi-das-cruzes-suzano\/noticia\/suzano-faz-mutirao-para-vacinacao-contra-a-febre-amarela.ghtml","lat":"-23.54","lng":"-46.31","local":"Suzano (SP)","causality":[],"topics":[],"sensors":[]},{"id":"a357edf7860b5f4db85b0e7d89cedb31","date":"2018-02-17 17:31:52","timestamp":"2018-03-08 06:52:09","title":"Bezerros confirma primeiro caso de Febre Amarela na cidade","url":"https:\/\/nodetalhe.com.br\/bezerros-confirma-febre-amarela-na-cidade\/","lat":"-23.31","lng":"-46.58","local":"Mairipora (SP)","causality":[],"topics":[],"sensors":[]},{"id":"05cbe98a044006e61952b6a3cb808506","date":"2018-02-17 20:53:27","timestamp":"2018-03-07 20:42:24","title":"Homem de Suzano \u00e9 diagnosticado com febre amarela, diz Prefeitura","url":"https:\/\/g1.globo.com\/sp\/mogi-das-cruzes-suzano\/noticia\/homem-de-suzano-e-diagnosticado-com-febre-amarela-diz-prefeitura.ghtml","lat":"-23.54","lng":"-46.31","local":"Suzano (SP)","causality":[],"topics":[],"sensors":[]},{"id":"0c9c9ff5e44394e44495345d3a9be72b","date":"2018-02-18 07:07:30","timestamp":"2018-03-18 08:49:53","title":"Sobe para 32 n\u00famero de mortes confirmadas por febre amarela em ","url":"http:\/\/paracatunews.com.br\/noticia\/5957\/sobe-para-32-numero-de-mortes-confirmadas-por-febre-amarela-em-minas-gerais","lat":"-21.12","lng":"-42.94","local":"Uba (MG)","causality":[],"topics":[],"sensors":[]},{"id":"bc562dc6fe767707319c5aa7946b52be","date":"2018-02-18 14:02:20","timestamp":"2018-03-08 21:07:57","title":"Guaruj\u00e1 prorroga a campanha de vacina\u00e7\u00e3o contra a febre amarela","url":"https:\/\/g1.globo.com\/sp\/santos-regiao\/mais-saude\/noticia\/guaruja-prorroga-a-campanha-de-vacinacao-contra-a-febre-amarela.ghtml","lat":"-23.99","lng":"-46.25","local":"Guaruja (SP)","causality":[],"topics":[],"sensors":[]},{"id":"4599f8de9ccbb310c255a93a0eac9067","date":"2018-02-18 15:40:52","timestamp":"2018-03-19 12:56:52","title":"Campanha de vacina\u00e7\u00e3o contra a febre amarela \u00e9 prorrogada na ","url":"http:\/\/agenciabrasil.ebc.com.br\/geral\/noticia\/2018-02\/campanha-de-vacinacao-contra-febre-amarela-e-prorrogada-na-capital-paulista","lat":"-23.31","lng":"-46.58","local":"Mairipora (SP)","causality":[],"topics":[],"sensors":[]},{"id":"9f83d0456471f56dfafbe10ab4c4bafa","date":"2018-02-18 16:29:49","timestamp":"2018-03-08 06:52:09","title":"Em SC, 84% dos casos suspeitos de febre amarela s\u00e3o descartados","url":"https:\/\/g1.globo.com\/sc\/santa-catarina\/noticia\/em-sc-84-dos-casos-suspeitos-de-febre-amarela-sao-descartados.ghtml","lat":"-23.31","lng":"-46.58","local":"Mairipora (SP)","causality":[],"topics":[],"sensors":[]},{"id":"87804c290432e0c673e8419a529670fa","date":"2018-02-18 16:29:49","timestamp":"2018-03-08 12:33:03","title":"Em SC, 84% dos casos suspeitos de febre amarela s\u00e3o descartados","url":"https:\/\/g1.globo.com\/sc\/santa-catarina\/noticia\/em-sc-84-dos-casos-suspeitos-de-febre-amarela-sao-descartados.ghtml","lat":"-26.93","lng":"-48.95","local":"Gaspar (SC)","causality":[],"topics":[],"sensors":[]},{"id":"aa4e1a1a952853a6e43ee86562093e63","date":"2018-02-19 10:20:16","timestamp":"2018-03-08 01:39:22","title":"Ribeir\u00e3o Pires prorroga vacina\u00e7\u00e3o contra febre amarela","url":"http:\/\/www.abcdoabc.com.br\/ribeirao-pires\/noticia\/ribeirao-pires-prorroga-vacinacao-contra-febre-amarela-61276","lat":"-23.71","lng":"-46.41","local":"Ribeirao Pires (SP)","causality":[],"topics":[],"sensors":[]},{"id":"a80fb02fb338c6b7781624ac9c13e214","date":"2018-02-19 11:40:26","timestamp":"2018-03-08 07:11:01","title":"Aumenta para 29 o n\u00famero de mortos por febre amarela no RJ e ","url":"https:\/\/g1.globo.com\/rj\/rio-de-janeiro\/noticia\/rio-de-janeiro-tera-novo-dia-d-de-combate-a-febre-amarela.ghtml","lat":"-22.24","lng":"-43.7","local":"Valenca (RJ)","causality":[],"topics":[],"sensors":[]},{"id":"d6a817bc4d18fbbd9bc1ffef7aa9a54d","date":"2018-02-19 11:40:26","timestamp":"2018-03-19 05:14:22","title":"Aumenta para 29 o n\u00famero de mortos por febre amarela no RJ e ","url":"https:\/\/g1.globo.com\/rj\/rio-de-janeiro\/noticia\/rio-de-janeiro-tera-novo-dia-d-de-combate-a-febre-amarela.ghtml","lat":"-23","lng":"-44.31","local":"Angra dos Reis (RJ)","causality":[],"topics":[],"sensors":[]},{"id":"ad31bd0ed5932fc15497ac0804b3fb31","date":"2018-02-19 12:04:11","timestamp":"2018-03-07 18:52:16","title":"Procura por vacina contra febre amarela cai, e Rio ter\u00e1 novo Dia D","url":"https:\/\/oglobo.globo.com\/rio\/procura-por-vacina-contra-febre-amarela-cai-rio-tera-novo-dia-d-22410902","lat":"-22.76","lng":"-43.39","local":"Belford Roxo (RJ)","causality":[],"topics":[],"sensors":[]},{"id":"39f19b8688e9a32c12ea3995ccd069f6","date":"2018-02-19 12:04:11","timestamp":"2018-03-07 18:58:51","title":"Procura por vacina contra febre amarela cai, e Rio ter\u00e1 novo Dia D","url":"https:\/\/oglobo.globo.com\/rio\/procura-por-vacina-contra-febre-amarela-cai-rio-tera-novo-dia-d-22410902","lat":"-22.8","lng":"-43.37","local":"Sao Joao de Meriti (RJ)","causality":[],"topics":[],"sensors":[]},{"id":"96d9461bc7d6e2a07d4c116074797088","date":"2018-02-19 12:04:11","timestamp":"2018-03-07 21:20:58","title":"Procura por vacina contra febre amarela cai, e Rio ter\u00e1 novo Dia D","url":"https:\/\/oglobo.globo.com\/rio\/procura-por-vacina-contra-febre-amarela-cai-rio-tera-novo-dia-d-22410902","lat":"-22.65","lng":"-43.04","local":"Mage (RJ)","causality":[],"topics":[],"sensors":[]},{"id":"3a2c2ea2bc961974c4cf279be8d5eac9","date":"2018-02-19 12:04:11","timestamp":"2018-03-08 06:37:41","title":"Procura por vacina contra febre amarela cai, e Rio ter\u00e1 novo Dia D","url":"https:\/\/oglobo.globo.com\/rio\/procura-por-vacina-contra-febre-amarela-cai-rio-tera-novo-dia-d-22410902","lat":"-22.74","lng":"-43.7","local":"Seropedica (RJ)","causality":[],"topics":[],"sensors":[]},{"id":"c007ad1b00582fe10e19a23faba18fc2","date":"2018-02-19 12:04:11","timestamp":"2018-03-09 04:01:09","title":"Procura por vacina contra febre amarela cai, e Rio ter\u00e1 novo Dia D","url":"https:\/\/oglobo.globo.com\/rio\/procura-por-vacina-contra-febre-amarela-cai-rio-tera-novo-dia-d-22410902","lat":"-22.64","lng":"-43.65","local":"Japeri (RJ)","causality":[],"topics":[],"sensors":[]},{"id":"19e94eb390029a4bc58b8a8489046e9c","date":"2018-02-19 12:04:11","timestamp":"2018-03-16 03:02:07","title":"Procura por vacina contra febre amarela cai, e Rio ter\u00e1 novo Dia D","url":"https:\/\/oglobo.globo.com\/rio\/procura-por-vacina-contra-febre-amarela-cai-rio-tera-novo-dia-d-22410902","lat":"-22.74","lng":"-42.85","local":"Itaborai (RJ)","causality":[],"topics":[],"sensors":[]},{"id":"ec1648729b8038536d711733e8ef5868","date":"2018-02-19 12:04:11","timestamp":"2018-03-18 00:02:10","title":"Procura por vacina contra febre amarela cai, e Rio ter\u00e1 novo Dia D","url":"https:\/\/oglobo.globo.com\/rio\/procura-por-vacina-contra-febre-amarela-cai-rio-tera-novo-dia-d-22410902","lat":"-22.78","lng":"-43.31","local":"Duque de Caxias (RJ)","causality":[],"topics":[],"sensors":[]},{"id":"95f99b74cefa0799cff4d1d6890050f2","date":"2018-02-19 12:04:11","timestamp":"2018-03-18 08:35:30","title":"Procura por vacina contra febre amarela cai, e Rio ter\u00e1 novo Dia D","url":"https:\/\/oglobo.globo.com\/rio\/procura-por-vacina-contra-febre-amarela-cai-rio-tera-novo-dia-d-22410902","lat":"-22.85","lng":"-43.77","local":"Itaguai (RJ)","causality":[],"topics":[],"sensors":[]},{"id":"7826a670b072f5980593f941d3006225","date":"2018-02-19 13:14:01","timestamp":"2018-03-08 02:25:14","title":"Secretaria de Sa\u00fade de Votorantim descarta febre amarela em beb\u00ea ","url":"https:\/\/g1.globo.com\/sp\/sorocaba-jundiai\/noticia\/secretaria-de-saude-descarta-febre-amarela-em-bebe-de-um-ano-em-votorantim.ghtml","lat":"-23.54","lng":"-47.43","local":"Votorantim (SP)","causality":[],"topics":[],"sensors":[]},{"id":"a224030bd16ac5c05c8e360f4d3b556a","date":"2018-02-19 13:14:01","timestamp":"2018-03-09 06:49:50","title":"Secretaria de Sa\u00fade de Votorantim descarta febre amarela em beb\u00ea ","url":"https:\/\/g1.globo.com\/sp\/sorocaba-jundiai\/noticia\/secretaria-de-saude-descarta-febre-amarela-em-bebe-de-um-ano-em-votorantim.ghtml","lat":"-21.6","lng":"-48.36","local":"Matao (SP)","causality":[],"topics":[],"sensors":[]},{"id":"294110c3b8e242f8730a9477c0c07a88","date":"2018-02-19 16:59:57","timestamp":"2018-03-08 02:35:32","title":"Valinhos confirma primeira morte por febre amarela e amplia ","url":"https:\/\/g1.globo.com\/sp\/campinas-regiao\/noticia\/valinhos-confirma-primeira-morte-por-febre-amarela-e-amplia-vacinacao.ghtml","lat":"-22.97","lng":"-46.99","local":"Valinhos (SP)","causality":[],"topics":[],"sensors":[]},{"id":"617022faad6701683162b521723be521","date":"2018-02-19 17:06:55","timestamp":"2018-03-07 23:47:52","title":"Jovem de Bragan\u00e7a Paulista morre com suspeita de febre amarela","url":"https:\/\/g1.globo.com\/sp\/vale-do-paraiba-regiao\/noticia\/jovem-de-braganca-paulista-morre-com-suspeita-de-febre-amarela.ghtml","lat":"-22.95","lng":"-46.54","local":"Braganca Paulista (SP)","causality":[],"topics":[],"sensors":[]},{"id":"cf2d105f2a1a60f0ebcebeeca2c56e3f","date":"2018-02-19 17:06:55","timestamp":"2018-03-19 06:36:54","title":"Jovem de Bragan\u00e7a Paulista morre com suspeita de febre amarela","url":"https:\/\/g1.globo.com\/sp\/vale-do-paraiba-regiao\/noticia\/jovem-de-braganca-paulista-morre-com-suspeita-de-febre-amarela.ghtml","lat":"-23.11","lng":"-46.55","local":"Atibaia (SP)","causality":[],"topics":[],"sensors":[]},{"id":"02914f8876ba00b2655eed831b8f2ce4","date":"2018-02-19 17:23:15","timestamp":"2018-03-16 12:11:48","title":"Diadema confirma sexto caso de febre amarela no ABC","url":"https:\/\/www.reporterdiario.com.br\/noticia\/2470090\/diadema-confirma-sexto-caso-de-febre-amarela-no-abc\/","lat":"-23.31","lng":"-46.58","local":"Mairipora (SP)","causality":[],"topics":[],"sensors":[]},{"id":"0c379e67d97991c15fb094b339ade8f8","date":"2018-02-19 20:42:40","timestamp":"2018-03-08 07:11:01","title":"Estado do Rio registra 33 mortes por febre amarela","url":"https:\/\/oglobo.globo.com\/rio\/estado-do-rio-registra-33-mortes-por-febre-amarela-22412786","lat":"-22.24","lng":"-43.7","local":"Valenca (RJ)","causality":[],"topics":[],"sensors":[]},{"id":"a0f801ef884dd79c74e44c17b3159544","date":"2018-02-20 06:58:38","timestamp":"2018-03-09 20:32:13","title":"Prefeitura restringe vacina\u00e7\u00e3o da febre amarela para 15 postos em ","url":"https:\/\/g1.globo.com\/sc\/santa-catarina\/noticia\/prefeitura-restringe-vacinacao-da-febre-amarela-para-15-postos-em-florianopolis.ghtml","lat":"-27.59","lng":"-48.54","local":"Florianopolis (SC)","causality":[],"topics":[],"sensors":[]},{"id":"6c35c49887c9314249720a5746d6b259","date":"2018-02-20 08:52:14","timestamp":"2018-03-07 22:37:35","title":"Nova Friburgo, RJ, realiza vacina\u00e7\u00e3o itinerante contra febre amarela ","url":"https:\/\/g1.globo.com\/rj\/regiao-serrana\/noticia\/nova-friburgo-rj-realiza-vacinacao-itinerante-contra-febre-amarela-no-bairro-chacara-do-paraiso.ghtml","lat":"-22.28","lng":"-42.53","local":"Nova Friburgo (RJ)","causality":[],"topics":[],"sensors":[]},{"id":"5244448ee5ab6fcc73c895008d2e03c5","date":"2018-02-20 09:24:07","timestamp":"2018-03-11 21:08:42","title":"Mau\u00e1 prorroga campanha de imuniza\u00e7\u00e3o contra a Febre Amarela","url":"http:\/\/www.abcdoabc.com.br\/maua\/noticia\/maua-prorroga-campanha-imunizacao-contra-febre-amarela-61329","lat":"-23.66","lng":"-46.46","local":"Maua (SP)","causality":[],"topics":[],"sensors":[]},{"id":"4faa83d85023535a9102ac54dc30749c","date":"2018-02-20 12:18:48","timestamp":"2018-03-11 19:21:46","title":"Secretaria Estadual de Sa\u00fade confirma terceiro caso de febre amarela em Jarinu","url":"https:\/\/g1.globo.com\/sp\/sorocaba-jundiai\/noticia\/secretaria-estadual-de-saude-confirma-terceiro-caso-de-febre-amarela-em-jarinu.ghtml","lat":"-23.5","lng":"-47.45","local":"Sorocaba (SP)","causality":[],"topics":[],"sensors":[]},{"id":"38d0e3fd91942840c6c060a22e64c361","date":"2018-02-20 14:54:06","timestamp":"2018-03-08 01:49:40","title":"Maric\u00e1, RJ, tem primeira morte por febre amarela confirmada no ano","url":"https:\/\/g1.globo.com\/rj\/regiao-dos-lagos\/noticia\/marica-rj-tem-primeira-morte-por-febre-amarela-confirmada-no-ano.ghtml","lat":"-22.91","lng":"-42.81","local":"Marica (RJ)","causality":[],"topics":[],"sensors":[]},{"id":"3eb616edc9f68a0b8480d40d1b8987dc","date":"2018-02-20 15:28:34","timestamp":"2018-03-08 06:45:56","title":"Casos confirmados de febre amarela sobem para 222 em Minas","url":"https:\/\/www.em.com.br\/app\/noticia\/gerais\/2018\/02\/20\/interna_gerais,938906\/casos-confirmados-de-febre-amarela-sobem-para-222-em-minas.shtml","lat":"-19.98","lng":"-43.84","local":"Nova Lima (MG)","causality":[],"topics":[],"sensors":[]},{"id":"ce6fb6cfe9cc945810198e4f200fe54a","date":"2018-02-20 16:31:32","timestamp":"2018-03-07 23:23:06","title":"Angra dos Reis registra maior n\u00famero de mortes por febre amarela ","url":"https:\/\/g1.globo.com\/rj\/sul-do-rio-costa-verde\/noticia\/angra-dos-reis-registra-maior-numero-de-mortes-por-febre-amarela-no-estado-do-rj.ghtml","lat":"-23","lng":"-44.31","local":"Angra dos Reis (RJ)","causality":[],"topics":[],"sensors":[]},{"id":"b1877befbf46bc4de521d858a2b5a9ca","date":"2018-02-20 16:53:32","timestamp":"2018-03-08 01:24:53","title":"Estado confirma mais mortes por febre amarela na Zona da Mata e ","url":"https:\/\/g1.globo.com\/mg\/zona-da-mata\/noticia\/estado-confirma-mais-mortes-por-febre-amarela-na-zona-da-mata-e-campo-das-vertentes.ghtml","lat":"-20.66","lng":"-43.78","local":"Conselheiro Lafaiete (MG)","causality":[],"topics":[],"sensors":[]},{"id":"f8e244c811bf101a6d86e781f1d6f788","date":"2018-02-20 17:55:37","timestamp":"2018-03-13 23:07:50","title":"Sa\u00fade ter\u00e1 novo Dia D contra a febre amarela em 3 de mar\u00e7o","url":"http:\/\/www.jb.com.br\/rio\/noticias\/2018\/02\/20\/saude-tera-novo-dia-d-contra-a-febre-amarela-em-3-de-marco\/","lat":"-22.8","lng":"-43.37","local":"Sao Joao de Meriti (RJ)","causality":[],"topics":[],"sensors":[]},{"id":"1b27da3c28bf8984925c512341a8a29e","date":"2018-02-20 17:55:37","timestamp":"2018-03-16 02:39:29","title":"Sa\u00fade ter\u00e1 novo Dia D contra a febre amarela em 3 de mar\u00e7o","url":"http:\/\/www.jb.com.br\/rio\/noticias\/2018\/02\/20\/saude-tera-novo-dia-d-contra-a-febre-amarela-em-3-de-marco\/","lat":"-22.65","lng":"-43.04","local":"Mage (RJ)","causality":[],"topics":[],"sensors":[]},{"id":"8f2abdc672ff68ce355f551e0d47d476","date":"2018-02-20 17:55:37","timestamp":"2018-03-16 04:26:56","title":"Sa\u00fade ter\u00e1 novo Dia D contra a febre amarela em 3 de mar\u00e7o","url":"http:\/\/www.jb.com.br\/rio\/noticias\/2018\/02\/20\/saude-tera-novo-dia-d-contra-a-febre-amarela-em-3-de-marco\/","lat":"-22.8","lng":"-43.41","local":"Nilopolis (RJ)","causality":[],"topics":[],"sensors":[]},{"id":"a8cb80f067c2cca0cd206c11db0d82f0","date":"2018-02-20 17:55:37","timestamp":"2018-03-16 08:39:39","title":"Sa\u00fade ter\u00e1 novo Dia D contra a febre amarela em 3 de mar\u00e7o","url":"http:\/\/www.jb.com.br\/rio\/noticias\/2018\/02\/20\/saude-tera-novo-dia-d-contra-a-febre-amarela-em-3-de-marco\/","lat":"-22.64","lng":"-43.65","local":"Japeri (RJ)","causality":[],"topics":[],"sensors":[]},{"id":"42d17e022475b55cf70bac86413b70d2","date":"2018-02-20 17:55:37","timestamp":"2018-03-16 11:57:25","title":"Sa\u00fade ter\u00e1 novo Dia D contra a febre amarela em 3 de mar\u00e7o","url":"http:\/\/www.jb.com.br\/rio\/noticias\/2018\/02\/20\/saude-tera-novo-dia-d-contra-a-febre-amarela-em-3-de-marco\/","lat":"-22.74","lng":"-43.7","local":"Seropedica (RJ)","causality":[],"topics":[],"sensors":[]},{"id":"58668ed2d47fb7ce6584853df7e5c9bc","date":"2018-02-20 17:55:37","timestamp":"2018-03-17 08:28:06","title":"Sa\u00fade ter\u00e1 novo Dia D contra a febre amarela em 3 de mar\u00e7o","url":"http:\/\/www.jb.com.br\/rio\/noticias\/2018\/02\/20\/saude-tera-novo-dia-d-contra-a-febre-amarela-em-3-de-marco\/","lat":"-22.85","lng":"-43.77","local":"Itaguai (RJ)","causality":[],"topics":[],"sensors":[]},{"id":"4dd7375f8d8e520492b169e7ac8c1e0f","date":"2018-02-20 20:30:10","timestamp":"2018-03-07 17:52:13","title":"Diadema e Guarulhos confirmam casos de febre amarela","url":"https:\/\/g1.globo.com\/sp\/sao-paulo\/noticia\/diadema-e-guarulhos-confirmam-casos-de-febre-amarela.ghtml","lat":"-23.46","lng":"-46.53","local":"Guarulhos (SP)","causality":[],"topics":[],"sensors":[]},{"id":"17f3d80340d811a3b6ab511cbcd89c13","date":"2018-02-20 20:30:10","timestamp":"2018-03-07 19:21:18","title":"Diadema e Guarulhos confirmam casos de febre amarela","url":"https:\/\/g1.globo.com\/sp\/sao-paulo\/noticia\/diadema-e-guarulhos-confirmam-casos-de-febre-amarela.ghtml","lat":"-23.68","lng":"-46.62","local":"Diadema (SP)","causality":[],"topics":[],"sensors":[]},{"id":"439ac73146aa8d462f61f82e471a1479","date":"2018-02-20 20:30:10","timestamp":"2018-03-09 05:38:28","title":"Diadema e Guarulhos confirmam casos de febre amarela","url":"https:\/\/g1.globo.com\/sp\/sao-paulo\/noticia\/diadema-e-guarulhos-confirmam-casos-de-febre-amarela.ghtml","lat":"-24.18","lng":"-46.78","local":"Itanhaem (SP)","causality":[],"topics":[],"sensors":[]},{"id":"db22eec83a2f13a3b4bb58430f312f8d","date":"2018-02-20 20:54:06","timestamp":"2018-03-08 02:29:21","title":"Casos de febre amarela sobem para 77 no estado do Rio de Janeiro","url":"http:\/\/www.jb.com.br\/rio\/noticias\/2018\/02\/20\/casos-de-febre-amarela-sobem-para-77-no-estado-do-rio-de-janeiro\/","lat":"-22.87","lng":"-42.34","local":"Araruama (RJ)","causality":[],"topics":[],"sensors":[]},{"id":"79f15b6dd14b2942528826bbd4abaf75","date":"2018-02-20 20:54:06","timestamp":"2018-03-10 08:13:50","title":"Casos de febre amarela sobem para 77 no estado do Rio de Janeiro","url":"http:\/\/www.jb.com.br\/rio\/noticias\/2018\/02\/20\/casos-de-febre-amarela-sobem-para-77-no-estado-do-rio-de-janeiro\/","lat":"-22.24","lng":"-43.7","local":"Valenca (RJ)","causality":[],"topics":[],"sensors":[]},{"id":"1f27d5e6b61d796db2f15421546ba292","date":"2018-02-21 08:08:11","timestamp":"2018-03-07 21:18:54","title":"Postos volantes vacinam contra a febre amarela em Santos e Praia ","url":"https:\/\/g1.globo.com\/sp\/santos-regiao\/mais-saude\/noticia\/postos-volantes-vacinam-contra-a-febre-amarela-em-santos-e-praia-grande-nesta-quarta-feira.ghtml","lat":"-24","lng":"-46.4","local":"Praia Grande (SP)","causality":[],"topics":[],"sensors":[]},{"id":"f07cee422c4b21e8a436f0f47842242b","date":"2018-02-21 09:49:59","timestamp":"2018-03-11 19:54:53","title":"Guarulhos registra 1\u00ba caso de febre amarela contra\u00eddo na cidade","url":"http:\/\/saude.estadao.com.br\/noticias\/geral,guarulhos-registra-1-caso-de-febre-amarela-contraido-na-cidade,70002197741","lat":"-23.46","lng":"-46.53","local":"Guarulhos (SP)","causality":[],"topics":[],"sensors":[]},{"id":"e260b37f1b06fd160338562b8a47be6a","date":"2018-02-21 10:08:42","timestamp":"2018-03-08 02:29:21","title":"Araruama, RJ, tem primeira morte de macaco por febre amarela ","url":"https:\/\/g1.globo.com\/rj\/regiao-dos-lagos\/noticia\/araruama-rj-tem-primeira-morte-de-macaco-por-febre-amarela-confirmada-pelo-estado.ghtml","lat":"-22.87","lng":"-42.34","local":"Araruama (RJ)","causality":[],"topics":[],"sensors":[]},{"id":"0810ea892efca813749703f4096c2e0f","date":"2018-02-21 11:35:32","timestamp":"2018-03-07 20:42:24","title":"Suzano far\u00e1 mutir\u00e3o de vacina\u00e7\u00e3o noturno contra febre amarela na ","url":"https:\/\/g1.globo.com\/sp\/mogi-das-cruzes-suzano\/noticia\/suzano-fara-mutirao-de-vacinacao-noturno-contra-febre-amarela-na-quinta-e-na-sexta.ghtml","lat":"-23.54","lng":"-46.31","local":"Suzano (SP)","causality":[],"topics":[],"sensors":[]},{"id":"9bea9bd802ca018a940910e01dfe7327","date":"2018-02-21 18:09:06","timestamp":"2018-03-07 22:20:48","title":"Golpistas oferecem vacina\u00e7\u00e3o contra a febre amarela para ","url":"https:\/\/g1.globo.com\/sp\/campinas-regiao\/noticia\/golpistas-oferecem-vacinacao-contra-a-febre-amarela-para-conseguir-dados-bancarios-de-moradores-em-hortolandia.ghtml","lat":"-22.85","lng":"-47.22","local":"Hortolandia (SP)","causality":[],"topics":[],"sensors":[]},{"id":"7f1eeffe1e44ea158941dadcb0dacfb2","date":"2018-02-21 18:55:22","timestamp":"2018-03-08 06:31:29","title":"Aruj\u00e1 confirma novo caso de febre amarela","url":"https:\/\/g1.globo.com\/sp\/mogi-das-cruzes-suzano\/noticia\/aruja-confirma-novo-caso-de-febre-amarela.ghtml","lat":"-23.39","lng":"-46.32","local":"Aruja (SP)","causality":[],"topics":[],"sensors":[]},{"id":"6de858c3c450e9852040055b6220b3e9","date":"2018-02-21 18:55:22","timestamp":"2018-03-11 22:30:51","title":"Aruj\u00e1 confirma novo caso de febre amarela","url":"https:\/\/g1.globo.com\/sp\/mogi-das-cruzes-suzano\/noticia\/aruja-confirma-novo-caso-de-febre-amarela.ghtml","lat":"-23.54","lng":"-46.31","local":"Suzano (SP)","causality":[],"topics":[],"sensors":[]},{"id":"c986d82f730319dc3e7fdd749a0372ab","date":"2018-02-21 19:09:21","timestamp":"2018-03-07 22:43:53","title":"Febre amarela: Valinhos cancela uso de senhas para vacina\u00e7\u00e3o e ","url":"https:\/\/g1.globo.com\/sp\/campinas-regiao\/noticia\/febre-amarela-valinhos-cancela-uso-de-senhas-para-vacinacao-e-indaiatuba-anuncia-mutirao-veja-locais.ghtml","lat":"-23.09","lng":"-47.21","local":"Indaiatuba (SP)","causality":[],"topics":[],"sensors":[]},{"id":"bb2f7e912506a79c306ca58da5c738ca","date":"2018-02-21 19:09:21","timestamp":"2018-03-22 09:37:16","title":"Febre amarela: Valinhos cancela uso de senhas para vacina\u00e7\u00e3o e ","url":"https:\/\/g1.globo.com\/sp\/campinas-regiao\/noticia\/febre-amarela-valinhos-cancela-uso-de-senhas-para-vacinacao-e-indaiatuba-anuncia-mutirao-veja-locais.ghtml","lat":"-22.97","lng":"-46.99","local":"Valinhos (SP)","causality":[],"topics":[],"sensors":[]},{"id":"e03cc147ce1aa345a644cf3ebe9a1313","date":"2018-02-21 19:23:02","timestamp":"2018-03-08 06:31:29","title":"Laudo confirma morte de macaco por febre amarela em Santa Isabel","url":"https:\/\/g1.globo.com\/sp\/mogi-das-cruzes-suzano\/noticia\/laudo-confirma-morte-de-macaco-por-febre-amarela-em-santa-isabel.ghtml","lat":"-23.39","lng":"-46.32","local":"Aruja (SP)","causality":[],"topics":[],"sensors":[]},{"id":"c438f63384643dde1a30f34e1f4f49d3","date":"2018-02-21 19:23:02","timestamp":"2018-03-08 15:47:08","title":"Laudo confirma morte de macaco por febre amarela em Santa Isabel","url":"https:\/\/g1.globo.com\/sp\/mogi-das-cruzes-suzano\/noticia\/laudo-confirma-morte-de-macaco-por-febre-amarela-em-santa-isabel.ghtml","lat":"-23.31","lng":"-46.22","local":"Santa Isabel (SP)","causality":[],"topics":[],"sensors":[]},{"id":"93ed155a7c1c0c7fe879db703108c714","date":"2018-02-21 20:27:49","timestamp":"2018-03-13 05:53:48","title":"Araruama, RJ, intensifica a\u00e7\u00f5es contra a febre amarela ap\u00f3s morte ","url":"https:\/\/g1.globo.com\/rj\/regiao-dos-lagos\/noticia\/araruama-rj-intensifica-acoes-contra-a-febre-amarela-apos-morte-de-macaco-pela-doenca.ghtml","lat":"-22.87","lng":"-42.34","local":"Araruama (RJ)","causality":[],"topics":[],"sensors":[]},{"id":"fee170abc797da912b35ecf93a8b57b5","date":"2018-02-21 20:53:39","timestamp":"2018-03-07 23:12:47","title":"Sobe n\u00famero de casos de febre amarela em Teres\u00f3polis, na Serra ","url":"https:\/\/g1.globo.com\/rj\/regiao-serrana\/noticia\/sobe-numero-de-casos-de-febre-amarela-em-teresopolis-na-serra-do-rio.ghtml","lat":"-22.41","lng":"-42.96","local":"Teresopolis (RJ)","causality":[],"topics":[],"sensors":[]},{"id":"2011304a53920c854a548a0be2211dc1","date":"2018-02-22 10:33:11","timestamp":"2018-03-08 00:29:09","title":"Barbacena intensifica vacina\u00e7\u00e3o contra febre amarela na \u00e1rea urbana","url":"https:\/\/g1.globo.com\/mg\/zona-da-mata\/noticia\/barbacena-intensifica-vacinacao-contra-febre-amarela-na-area-urbana.ghtml","lat":"-21.22","lng":"-43.77","local":"Barbacena (MG)","causality":[],"topics":[],"sensors":[]},{"id":"ad9c54304a152f8ff00949a4391d4550","date":"2018-02-22 10:33:11","timestamp":"2018-03-09 05:28:07","title":"Barbacena intensifica vacina\u00e7\u00e3o contra febre amarela na \u00e1rea urbana","url":"https:\/\/g1.globo.com\/mg\/zona-da-mata\/noticia\/barbacena-intensifica-vacinacao-contra-febre-amarela-na-area-urbana.ghtml","lat":"-21.13","lng":"-44.26","local":"Sao Joao del Rei (MG)","causality":[],"topics":[],"sensors":[]},{"id":"24e62e52b5b7d70e07d5bfa791b609aa","date":"2018-02-22 10:33:11","timestamp":"2018-03-10 15:41:48","title":"Barbacena intensifica vacina\u00e7\u00e3o contra febre amarela na \u00e1rea urbana","url":"https:\/\/g1.globo.com\/mg\/zona-da-mata\/noticia\/barbacena-intensifica-vacinacao-contra-febre-amarela-na-area-urbana.ghtml","lat":"-20.5","lng":"-43.85","local":"Congonhas (MG)","causality":[],"topics":[],"sensors":[]},{"id":"e68b1311fb1465f43a8ccc61c94e8345","date":"2018-02-22 10:33:11","timestamp":"2018-03-18 07:06:49","title":"Barbacena intensifica vacina\u00e7\u00e3o contra febre amarela na \u00e1rea urbana","url":"https:\/\/g1.globo.com\/mg\/zona-da-mata\/noticia\/barbacena-intensifica-vacinacao-contra-febre-amarela-na-area-urbana.ghtml","lat":"-20.66","lng":"-43.78","local":"Conselheiro Lafaiete (MG)","causality":[],"topics":[],"sensors":[]},{"id":"8235448112a680262e07c65491d31b2d","date":"2018-02-22 13:04:54","timestamp":"2018-03-08 12:39:24","title":"Meta de vacina\u00e7\u00e3o contra febre amarela \u00e9 atingida em 17 cidades ","url":"https:\/\/g1.globo.com\/mg\/sul-de-minas\/noticia\/meta-de-vacinacao-contra-febre-amarela-e-atingida-em-17-cidades-do-sul-de-mg.ghtml","lat":"-21.36","lng":"-45.51","local":"Tres Pontas (MG)","causality":[],"topics":[],"sensors":[]},{"id":"142d3cf33359ef827e0232f8a1cf1fe9","date":"2018-02-22 15:29:23","timestamp":"2018-03-23 23:05:35","title":"Confirma\u00e7\u00e3o de morte de macaco por febre amarela em Santa ","url":"https:\/\/g1.globo.com\/sp\/mogi-das-cruzes-suzano\/noticia\/confirmacao-de-morte-de-macaco-por-febre-amarela-em-santa-isabel-indica-que-virus-circula-no-alto-tiete.ghtml","lat":"-23.39","lng":"-46.32","local":"Aruja (SP)","causality":[],"topics":[],"sensors":[]},{"id":"aa9af7535abdf92e116de40260430cd1","date":"2018-02-22 15:29:23","timestamp":"2018-03-24 07:54:30","title":"Confirma\u00e7\u00e3o de morte de macaco por febre amarela em Santa ","url":"https:\/\/g1.globo.com\/sp\/mogi-das-cruzes-suzano\/noticia\/confirmacao-de-morte-de-macaco-por-febre-amarela-em-santa-isabel-indica-que-virus-circula-no-alto-tiete.ghtml","lat":"-23.31","lng":"-46.22","local":"Santa Isabel (SP)","causality":[],"topics":[],"sensors":[]},{"id":"c65db5920d0f73bbc5d4329d4b5758f0","date":"2018-02-22 20:08:40","timestamp":"2018-03-07 23:12:47","title":"Pais de jovem morto por febre amarela, imunizado h\u00e1 5 anos, fazem ","url":"https:\/\/g1.globo.com\/rj\/regiao-serrana\/noticia\/pais-de-jovem-morto-por-febre-amarela-imunizado-ha-5-anos-fazem-apelo-na-web-para-que-todos-se-vacinem-sem-abandonar-repelente.ghtml","lat":"-22.41","lng":"-42.96","local":"Teresopolis (RJ)","causality":[],"topics":[],"sensors":[]},{"id":"72df9dcb34c055a2204ba8a825b71341","date":"2018-02-23 06:41:54","timestamp":"2018-03-23 19:04:19","title":"S\u00f3 em 2018, febre amarela j\u00e1 matou 38 pessoas no RJ","url":"https:\/\/exame.abril.com.br\/brasil\/so-em-2018-febre-amarela-ja-matou-38-pessoas-no-rio\/","lat":"-22.87","lng":"-42.34","local":"Araruama (RJ)","causality":[],"topics":[],"sensors":[]},{"id":"6630726895c3a8f7f62ea046ae693568","date":"2018-02-23 06:41:54","timestamp":"2018-03-23 23:44:33","title":"S\u00f3 em 2018, febre amarela j\u00e1 matou 38 pessoas no RJ","url":"https:\/\/exame.abril.com.br\/brasil\/so-em-2018-febre-amarela-ja-matou-38-pessoas-no-rio\/","lat":"-22.24","lng":"-43.7","local":"Valenca (RJ)","causality":[],"topics":[],"sensors":[]},{"id":"74be5bfae07b6caeb5f520adfb65b913","date":"2018-02-23 09:00:34","timestamp":"2018-03-08 11:47:18","title":"Registro anuncia vacina contra febre amarela para toda a popula\u00e7\u00e3o","url":"https:\/\/g1.globo.com\/sp\/santos-regiao\/mais-saude\/noticia\/registro-anuncia-vacina-contra-febre-amarela-para-toda-a-populacao.ghtml","lat":"-24.48","lng":"-47.84","local":"Registro (SP)","causality":[],"topics":[],"sensors":[]},{"id":"de3b570ac52371bfd3df9e360b452086","date":"2018-02-23 09:37:05","timestamp":"2018-03-14 23:51:07","title":"Posto volante de vacina\u00e7\u00e3o contra a febre amarela volta a ser ","url":"http:\/\/www.atribuna.com.br\/noticias\/noticias-detalhe\/cidades\/posto-volante-de-vacinacao-contra-a-febre-amarela-volta-a-ser-montado-na-praca-maua\/?cHash=679a78d9d1aff4075d3d2b54f5aa5e5b","lat":"-23.66","lng":"-46.46","local":"Maua (SP)","causality":[],"topics":[],"sensors":[]},{"id":"c5ba8bbf69c1a31f85276bbca74be62b","date":"2018-02-23 12:43:12","timestamp":"2018-03-24 19:31:55","title":"Pira\u00ed tem primeira morte confirmada por febre amarela","url":"https:\/\/avozdacidade.com\/pirai-tem-primeira-morte-confirmada-por-febre-amarela\/","lat":"-22.47","lng":"-43.82","local":"Barra do Pirai (RJ)","causality":[],"topics":[],"sensors":[]},{"id":"aa167b5dd9401421c2bbbf4a47851b70","date":"2018-02-23 18:42:26","timestamp":"2018-03-08 05:04:37","title":"Vacina contra a febre amarela \u00e9 \"imperfeita\", afirma secret\u00e1rio","url":"https:\/\/noticias.r7.com\/saude\/vacina-contra-a-febre-amarela-e-imperfeita-afirma-secretario-23022018","lat":"-21.96","lng":"-46.79","local":"Sao Joao da Boa Vista (SP)","causality":[],"topics":[],"sensors":[]},{"id":"51629ebe6fd81f2b930cc33722651ea0","date":"2018-02-23 19:01:00","timestamp":"2018-03-08 02:25:14","title":"'Dia D' de vacina\u00e7\u00e3o contra a febre amarela ser\u00e1 neste s\u00e1bado em ","url":"https:\/\/g1.globo.com\/sp\/sorocaba-jundiai\/noticia\/dia-d-de-vacinacao-contra-a-febre-amarela-sera-neste-sabado-em-cidades-da-regiao.ghtml","lat":"-23.54","lng":"-47.43","local":"Votorantim (SP)","causality":[],"topics":[],"sensors":[]},{"id":"35e337e8f46ba6bf9e5be96ffd38a166","date":"2018-02-23 19:01:00","timestamp":"2018-03-08 15:00:24","title":"'Dia D' de vacina\u00e7\u00e3o contra a febre amarela ser\u00e1 neste s\u00e1bado em ","url":"https:\/\/g1.globo.com\/sp\/sorocaba-jundiai\/noticia\/dia-d-de-vacinacao-contra-a-febre-amarela-sera-neste-sabado-em-cidades-da-regiao.ghtml","lat":"-23.21","lng":"-47.52","local":"Porto Feliz (SP)","causality":[],"topics":[],"sensors":[]},{"id":"ad3f46015d2a2460f1d0bd01acb954f3","date":"2018-02-23 19:01:00","timestamp":"2018-03-08 17:35:39","title":"'Dia D' de vacina\u00e7\u00e3o contra a febre amarela ser\u00e1 neste s\u00e1bado em ","url":"https:\/\/g1.globo.com\/sp\/sorocaba-jundiai\/noticia\/dia-d-de-vacinacao-contra-a-febre-amarela-sera-neste-sabado-em-cidades-da-regiao.ghtml","lat":"-23.54","lng":"-47.18","local":"Mairinque (SP)","causality":[],"topics":[],"sensors":[]},{"id":"36f2777b552bef5eca784301b40d39a6","date":"2018-02-23 19:01:00","timestamp":"2018-03-16 04:44:07","title":"'Dia D' de vacina\u00e7\u00e3o contra a febre amarela ser\u00e1 neste s\u00e1bado em ","url":"https:\/\/g1.globo.com\/sp\/sorocaba-jundiai\/noticia\/dia-d-de-vacinacao-contra-a-febre-amarela-sera-neste-sabado-em-cidades-da-regiao.ghtml","lat":"-23.26","lng":"-47.29","local":"Itu (SP)","causality":[],"topics":[],"sensors":[]},{"id":"705c75d7412b7b116a02d47fae6290e2","date":"2018-02-23 19:44:07","timestamp":"2018-03-09 07:33:50","title":"SP registra 93 mortes por febre amarela e 246 casos da doen\u00e7a ","url":"https:\/\/g1.globo.com\/sp\/sao-paulo\/noticia\/sp-registra-93-mortes-por-febre-amarela-e-246-casos-da-doenca-desde-2017.ghtml","lat":"-23.31","lng":"-46.58","local":"Mairipora (SP)","causality":[],"topics":[],"sensors":[]},{"id":"1e69d79cacab92e567bb2f7575edc06a","date":"2018-02-23 20:24:01","timestamp":"2018-03-07 23:12:47","title":"Duas Barras, RJ, registra primeira morte por febre amarela e ","url":"https:\/\/g1.globo.com\/rj\/regiao-serrana\/noticia\/duas-barras-rj-registra-primeira-morte-por-febre-amarela-e-numero-de-casos-confirmados-aumenta-na-cidade.ghtml","lat":"-22.41","lng":"-42.96","local":"Teresopolis (RJ)","causality":[],"topics":[],"sensors":[]},{"id":"a52025416ce1a43c02c8016c6a5a9700","date":"2018-02-23 20:30:47","timestamp":"2018-03-23 23:26:06","title":"Em uma semana, 17 pessoas morrem por febre amarela no Estado","url":"http:\/\/www.destakjornal.com.br\/cidades\/sao-paulo\/detalhe\/em-uma-semana-17-pessoas-morrem-por-febre-amarela-no-estado","lat":"-23.31","lng":"-46.58","local":"Mairipora (SP)","causality":[],"topics":[],"sensors":[]},{"id":"77eb981e6161ef7517077f72c7356640","date":"2018-02-23 20:54:11","timestamp":"2018-03-09 07:52:52","title":"Em um dia, Estado confirma nove novos casos de febre amarela no ","url":"https:\/\/oglobo.globo.com\/rio\/em-um-dia-estado-confirma-nove-novos-casos-de-febre-amarela-no-rio-22428502","lat":"-22.24","lng":"-43.7","local":"Valenca (RJ)","causality":[],"topics":[],"sensors":[]},{"id":"c48d25b32a42a71fb8f303c369858f4e","date":"2018-02-23 20:54:11","timestamp":"2018-03-12 04:14:01","title":"Em um dia, Estado confirma nove novos casos de febre amarela no ","url":"https:\/\/oglobo.globo.com\/rio\/em-um-dia-estado-confirma-nove-novos-casos-de-febre-amarela-no-rio-22428502","lat":"-22.87","lng":"-42.34","local":"Araruama (RJ)","causality":[],"topics":[],"sensors":[]},{"id":"f4c36514a4b8945e923f6dffea6d2169","date":"2018-02-23 22:16:44","timestamp":"2018-03-08 06:52:09","title":"SP j\u00e1 registra 93 mortes por febre amarela","url":"https:\/\/www.jcnet.com.br\/Nacional\/2018\/02\/sp-ja-registra-93-mortes-por-febre-amarela.html","lat":"-23.31","lng":"-46.58","local":"Mairipora (SP)","causality":[],"topics":[],"sensors":[]},{"id":"7dadd83ac864623fc5356799b7eb7585","date":"2018-02-23 23:15:28","timestamp":"2018-03-08 04:48:07","title":"Regi\u00e3o registra primeira v\u00edtima de Febre Amarela","url":"http:\/\/www.gazetadesaojoaodelrei.com.br\/site\/2018\/02\/regiao-registra-primeira-vitima-de-febre-amarela\/","lat":"-21.13","lng":"-44.26","local":"Sao Joao del Rei (MG)","causality":[],"topics":[],"sensors":[]},{"id":"0f8f3a0e474daefe04134ba8a9697a16","date":"2018-02-24 06:55:15","timestamp":"2018-03-07 20:23:06","title":"Guaruj\u00e1 tem Dia 'D' municipal de vacina\u00e7\u00e3o contra febre amarela ","url":"https:\/\/g1.globo.com\/sp\/santos-regiao\/mais-saude\/noticia\/guaruja-tem-dia-d-municipal-de-vacinacao-contra-febre-amarela-nesta-sabado.ghtml","lat":"-23.99","lng":"-46.25","local":"Guaruja (SP)","causality":[],"topics":[],"sensors":[]},{"id":"c42bd1b4dddc122ee1c8bb33d1f41470","date":"2018-02-24 08:29:23","timestamp":"2018-03-08 03:08:39","title":"Saiba as regi\u00f5es onde h\u00e1 maior risco de contrair febre amarela em ","url":"https:\/\/www.em.com.br\/app\/noticia\/gerais\/2018\/02\/24\/interna_gerais,939870\/saiba-regioes-onde-ha-maior-risco-de-contrair-febre-amarela-em-minas.shtml","lat":"-21.12","lng":"-42.94","local":"Uba (MG)","causality":[],"topics":[],"sensors":[]},{"id":"5d0f8409304edb138e164c81f1cef42a","date":"2018-02-24 08:29:23","timestamp":"2018-03-08 06:58:29","title":"Saiba as regi\u00f5es onde h\u00e1 maior risco de contrair febre amarela em ","url":"https:\/\/www.em.com.br\/app\/noticia\/gerais\/2018\/02\/24\/interna_gerais,939870\/saiba-regioes-onde-ha-maior-risco-de-contrair-febre-amarela-em-minas.shtml","lat":"-21.42","lng":"-45.94","local":"Alfenas (MG)","causality":[],"topics":[],"sensors":[]},